rosbagTimestamp,header,seq,stamp,secs,nsecs,frame_id,status,status,service,latitude,longitude,altitude,position_covariance,position_covariance_type
1551447882832656784,,8901,,1551447882,731014729,"""gps""",,2,0,22.3208991113,87.3111166606,7.277,"[1.0197644914818676e-05, 3.544129253989963e-14, 0.0, 3.54412929634161e-14, 1.0197644781397322e-05, 0.0, 0.0, 0.0, 4.85449282192622e-08]",3
1551447882882657979,,8902,,1551447882,856631517,"""gps""",,2,0,22.3208991126,87.3111166602,7.277,"[1.1304283736358768e-05, 1.209280330257171e-13, 0.0, 1.2092803217868416e-13, 1.1304283281037453e-05, 0.0, 0.0, 0.0, 6.858926855979339e-08]",3
1551447882934792818,,8903,,1551447882,856631517,"""gps""",,2,0,22.3208991131,87.3111166601,7.277,"[9.087207064323747e-06, 6.960316129472942e-14, 0.0, 6.96031617182459e-14, 9.087206802252763e-06, 0.0, 0.0, 0.0, 5.382224698589045e-08]",3
1551447882982594706,,8904,,1551447882,904893875,"""gps""",,2,0,22.320899115,87.3111166596,7.277,"[6.816464841307551e-06, 1.0699123370301687e-13, 0.0, 1.0699123412653334e-13, 6.816464438452925e-06, 0.0, 0.0, 0.0, 6.2205405034038e-08]",3
1551447883008649912,,8905,,1551447882,904893875,"""gps""",,2,0,22.320899115,87.3111166596,7.277,"[6.816464841307551e-06, 1.0699123370301687e-13, 0.0, 1.0699123412653334e-13, 6.816464438452925e-06, 0.0, 0.0, 0.0, 6.2205405034038e-08]",3
1551447883057578276,,8906,,1551447882,958463192,"""gps""",,2,0,22.3208991153,87.3111166595,7.277,"[6.204827332403182e-06, 7.932616673417563e-14, 0.0, 7.932616673417563e-14, 6.204827033715297e-06, 0.0, 0.0, 0.0, 5.187935017284132e-08]",3
1551447883107764719,,8907,,1551447883,29863596,"""gps""",,2,0,22.3208991155,87.3111166594,7.277,"[5.481364646851478e-06, 4.60049584859797e-14, 0.0, 4.6004958274221464e-14, 5.4813644736055345e-06, 0.0, 0.0, 0.0, 5.9417441989485566e-08]",3
1551447883158552604,,8908,,1551447883,104866028,"""gps""",,2,0,22.3208991173,87.311116659,7.277,"[4.990979581478277e-06, 9.689260070344066e-14, 0.0, 9.689260112695714e-14, 4.990979216550578e-06, 0.0, 0.0, 0.0, 7.204111315864341e-08]",3
1551447883183131076,,8909,,1551447883,104866028,"""gps""",,2,0,22.3208991173,87.311116659,7.277,"[4.990979581478277e-06, 9.689260070344066e-14, 0.0, 9.689260112695714e-14, 4.990979216550578e-06, 0.0, 0.0, 0.0, 7.204111315864341e-08]",3
1551447883207807570,,8910,,1551447883,129881859,"""gps""",,2,0,22.3208991181,87.3111166587,7.277,"[4.86246347018094e-06, 1.320622737058366e-13, 0.0, 1.320622737058366e-13, 4.862462972745591e-06, 0.0, 0.0, 0.0, 7.772139944909172e-08]",3
1551447883233131762,,8911,,1551447883,129881859,"""gps""",,2,0,22.3208991181,87.3111166587,7.277,"[4.86246347018094e-06, 1.320622737058366e-13, 0.0, 1.320622737058366e-13, 4.862462972745591e-06, 0.0, 0.0, 0.0, 7.772139944909172e-08]",3
1551447883289291216,,8912,,1551447883,261016846,"""gps""",,2,0,22.3208991219,87.3111166577,7.277,"[7.268603787244039e-06, 5.487116000843273e-13, 0.0, 5.487116002960855e-13, 7.268601719918816e-06, 0.0, 0.0, 0.0, 1.4690220819466004e-07]",3
1551447883332918346,,8913,,1551447883,261016846,"""gps""",,2,0,22.320899122,87.3111166577,7.277,"[6.150759826375132e-06, 3.9297852797572184e-13, 0.0, 3.9297852797572184e-13, 6.15075834578935e-06, 0.0, 0.0, 0.0, 9.253021170060927e-08]",3
1551447883383105625,,8914,,1551447883,304894447,"""gps""",,2,0,22.3208991254,87.3111166568,7.277,"[5.145163405386758e-06, 4.836477575988771e-13, 0.0, 4.836477578106353e-13, 5.145161583097254e-06, 0.0, 0.0, 0.0, 1.1700293952508435e-07]",3
1551447883409259507,,8915,,1551447883,304894447,"""gps""",,2,0,22.3208991254,87.3111166568,7.277,"[5.145163405386758e-06, 4.836477575988771e-13, 0.0, 4.836477578106353e-13, 5.145161583097254e-06, 0.0, 0.0, 0.0, 1.1700293952508435e-07]",3
1551447883457785963,,8916,,1551447883,355211020,"""gps""",,2,0,22.3208991295,87.3111166557,7.277,"[5.055253625660487e-06, 9.93145417877442e-13, 0.0, 9.931454180892003e-13, 5.055249882999048e-06, 0.0, 0.0, 0.0, 1.8642911587650893e-07]",3
1551447883507928562,,8917,,1551447883,486770630,"""gps""",,2,0,22.320899128,87.3111166561,7.277,"[7.769299973186547e-06, 5.674845103024534e-13, 0.0, 5.674845107259699e-13, 7.769297834633144e-06, 0.0, 0.0, 0.0, 1.905584902816125e-07]",3
1551447883557844773,,8918,,1551447883,486770630,"""gps""",,2,0,22.3208991288,87.3111166559,7.277,"[5.745994275318627e-06, 3.080308237991857e-13, 0.0, 3.080308237991857e-13, 5.745993114516164e-06, 0.0, 0.0, 0.0, 7.548450869688317e-08]",3
1551447883608387252,,8919,,1551447883,486770630,"""gps""",,2,0,22.3208991288,87.3111166559,7.277,"[5.745994275318627e-06, 3.080308237991857e-13, 0.0, 3.080308237991857e-13, 5.745993114516164e-06, 0.0, 0.0, 0.0, 7.548450869688317e-08]",3
1551447883634459312,,8920,,1551447883,531019449,"""gps""",,2,0,22.3208991297,87.3111166557,7.277,"[5.309863479313036e-06, 2.833074639279178e-13, 0.0, 2.833074639279178e-13, 5.309862411743562e-06, 0.0, 0.0, 0.0, 6.672492531193685e-08]",3
1551447883683077409,,8921,,1551447883,579889297,"""gps""",,2,0,22.3208991317,87.3111166551,7.277,"[5.035152215345532e-06, 3.303005229810446e-13, 0.0, 3.3030052276928636e-13, 5.035150970863896e-06, 0.0, 0.0, 0.0, 8.720965914913397e-08]",3
1551447883732729401,,8922,,1551447883,654894829,"""gps""",,2,0,22.320899137,87.3111166537,7.277,"[4.84066512621434e-06, 7.863424324372801e-13, 0.0, 7.863424326490383e-13, 4.840662164306263e-06, 0.0, 0.0, 0.0, 1.5580230355054976e-07]",3
1551447883782761541,,8923,,1551447883,679975986,"""gps""",,2,0,22.3208991381,87.3111166534,7.277,"[4.769868387626176e-06, 9.258796810583523e-13, 0.0, 9.258796812701105e-13, 4.769864900303381e-06, 0.0, 0.0, 0.0, 1.5116448678452073e-07]",3
1551447883808155597,,8924,,1551447883,704880476,"""gps""",,2,0,22.3208991387,87.3111166533,7.277,"[4.658189097588378e-06, 8.433440031490106e-13, 0.0, 8.433440027254941e-13, 4.658185921178274e-06, 0.0, 0.0, 0.0, 1.1688778293401825e-07]",3
1551447883857784712,,8925,,1551447883,754883051,"""gps""",,2,0,22.3208991414,87.3111166526,7.277,"[4.540543272503107e-06, 1.0890931277054739e-12, 0.0, 1.0890931274937156e-12, 4.5405391706092e-06, 0.0, 0.0, 0.0, 1.3476780295629422e-07]",3
1551447883907965027,,8926,,1551447883,804883242,"""gps""",,2,0,22.320899143,87.3111166521,7.277,"[4.388131160530041e-06, 1.1118382942209556e-12, 0.0, 1.1118382937974392e-12, 4.388126973020134e-06, 0.0, 0.0, 0.0, 1.0700727512355284e-07]",3
1551447883958248348,,8927,,1551447883,855021954,"""gps""",,2,0,22.3208991437,87.311116652,7.277,"[4.242885594511955e-06, 1.0058399019284917e-12, 0.0, 1.0058399019284917e-12, 4.242881806229407e-06, 0.0, 0.0, 0.0, 8.263174213454733e-08]",3
1551447884008019013,,8928,,1551447883,955396891,"""gps""",,2,0,22.3208991447,87.3111166517,7.277,"[4.013725349726852e-06, 7.240939423918042e-13, 0.0, 7.24093942180046e-13, 4.013722622644144e-06, 0.0, 0.0, 0.0, 6.397561454730467e-08]",3
1551447884057590181,,8929,,1551447883,955396891,"""gps""",,2,0,22.3208991447,87.3111166517,7.277,"[4.013725349726852e-06, 7.240939423918042e-13, 0.0, 7.24093942180046e-13, 4.013722622644144e-06, 0.0, 0.0, 0.0, 6.397561454730467e-08]",3
1551447884082637656,,8930,,1551447884,5156994,"""gps""",,2,0,22.3208991462,87.3111166513,7.277,"[3.935435904915417e-06, 7.628519463849162e-13, 0.0, 7.628519463849162e-13, 3.935433031719109e-06, 0.0, 0.0, 0.0, 7.597566179192611e-08]",3
1551447884132986560,,8931,,1551447884,54875135,"""gps""",,2,0,22.3208991478,87.3111166509,7.277,"[3.862883541684868e-06, 8.016866680578852e-13, 0.0, 8.016866681637643e-13, 3.862880522010131e-06, 0.0, 0.0, 0.0, 7.849956323168253e-08]",3
1551447884183257900,,8932,,1551447884,129907608,"""gps""",,2,0,22.3208991526,87.3111166496,7.277,"[3.91459397300502e-06, 1.2948430165640723e-12, 0.0, 1.2948430166699514e-12, 3.9145890942731285e-06, 0.0, 0.0, 0.0, 1.6559511816799218e-07]",3
1551447884232741595,,8933,,1551447884,154864788,"""gps""",,2,0,22.3208991532,87.3111166494,7.277,"[3.88525552978518e-06, 1.3228454787786616e-12, 0.0, 1.3228454787786616e-12, 3.88525054537062e-06, 0.0, 0.0, 0.0, 1.378294182146411e-07]",3
1551447884282760670,,8934,,1551447884,154864788,"""gps""",,2,0,22.3208991532,87.3111166494,7.277,"[3.88525552978518e-06, 1.3228454787786616e-12, 0.0, 1.3228454787786616e-12, 3.88525054537062e-06, 0.0, 0.0, 0.0, 1.378294182146411e-07]",3
1551447884333127203,,8935,,1551447884,229875326,"""gps""",,2,0,22.3208991538,87.3111166493,7.277,"[3.7708415341383676e-06, 1.0781683707669463e-12, 0.0, 1.0781683707669463e-12, 3.770837471658231e-06, 0.0, 0.0, 0.0, 8.680932180777475e-08]",3
1551447884357587606,,8936,,1551447884,280086279,"""gps""",,2,0,22.320899154,87.3111166492,7.277,"[3.7141105067739195e-06, 8.785417779517393e-13, 0.0, 8.785417779517393e-13, 3.714107196589999e-06, 0.0, 0.0, 0.0, 7.687906545033906e-08]",3
1551447884407715595,,8937,,1551447884,329886913,"""gps""",,2,0,22.3208991543,87.3111166491,7.277,"[3.6482410646977353e-06, 7.239775078664461e-13, 0.0, 7.239775078664461e-13, 3.6482383369606927e-06, 0.0, 0.0, 0.0, 5.9599944048055276e-08]",3
1551447884457719549,,8938,,1551447884,329886913,"""gps""",,2,0,22.3208991543,87.3111166491,7.277,"[3.6482410646977353e-06, 7.239775078664461e-13, 0.0, 7.239775078664461e-13, 3.6482383369606927e-06, 0.0, 0.0, 0.0, 5.9599944048055276e-08]",3
1551447884509128999,,8939,,1551447884,404909849,"""gps""",,2,0,22.3208991565,87.3111166485,7.277,"[3.597118724631567e-06, 7.672150965289684e-13, 0.0, 7.672150965289684e-13, 3.5971158335918376e-06, 0.0, 0.0, 0.0, 7.063568583746478e-08]",3
1551447884557796783,,8940,,1551447884,454901218,"""gps""",,2,0,22.3208991591,87.3111166479,7.277,"[3.630935723672417e-06, 9.94746012733309e-13, 0.0, 9.9474601262743e-13, 3.630931974707812e-06, 0.0, 0.0, 0.0, 1.199261555882273e-07]",3
1551447884582737872,,8941,,1551447884,504931450,"""gps""",,2,0,22.3208991606,87.3111166475,7.277,"[3.6028351666400235e-06, 1.0318617363087252e-12, 0.0, 1.0318617363087252e-12, 3.602831277626437e-06, 0.0, 0.0, 0.0, 9.969432929636691e-08]",3
1551447884632700240,,8942,,1551447884,554862976,"""gps""",,2,0,22.320899162,87.3111166471,7.277,"[3.5799277410259264e-06, 1.051173705494264e-12, 0.0, 1.051173705388385e-12, 3.5799237792531445e-06, 0.0, 0.0, 0.0, 9.331529429730852e-08]",3
1551447884682794114,,8943,,1551447884,579892874,"""gps""",,2,0,22.3208991627,87.3111166469,7.277,"[3.570613188074839e-06, 1.0602893243595414e-12, 0.0, 1.0602893243595414e-12, 3.57060919195617e-06, 0.0, 0.0, 0.0, 9.198303634859267e-08]",3
1551447884732733569,,8944,,1551447884,629872799,"""gps""",,2,0,22.3208991648,87.3111166463,7.277,"[3.5822704248997297e-06, 1.1804469484148414e-12, 0.0, 1.1804469483089623e-12, 3.5822659762013938e-06, 0.0, 0.0, 0.0, 1.1409765080373574e-07]",3
1551447884782600461,,8945,,1551447884,679864168,"""gps""",,2,0,22.3208991656,87.3111166461,7.277,"[3.5508278076936214e-06, 1.096738409288546e-12, 0.0, 1.0967384091826668e-12, 3.550823674628049e-06, 0.0, 0.0, 0.0, 8.902990667546292e-08]",3
1551447884807753827,,8946,,1551447884,729892492,"""gps""",,2,0,22.3208991661,87.311116646,7.277,"[3.520420510181167e-06, 9.977575731557348e-13, 0.0, 9.977575731557348e-13, 3.520416750310692e-06, 0.0, 0.0, 0.0, 7.53802178271658e-08]",3
1551447884857572313,,8947,,1551447884,779888391,"""gps""",,2,0,22.3208991663,87.3111166459,7.277,"[3.4831880024433187e-06, 8.17672178452692e-13, 0.0, 8.176721785585711e-13, 3.483184921237146e-06, 0.0, 0.0, 0.0, 5.985740893340563e-08]",3
1551447884909340509,,8948,,1551447884,808883905,"""gps""",,2,0,22.3208991671,87.3111166457,7.277,"[3.5121529403657497e-06, 8.304504018749731e-13, 0.0, 8.304504018749731e-13, 3.5121498110986376e-06, 0.0, 0.0, 0.0, 6.550790549926265e-08]",3
1551447884957567158,,8949,,1551447884,854925871,"""gps""",,2,0,22.3208991675,87.3111166456,7.277,"[3.4601150932228024e-06, 7.647062323730462e-13, 0.0, 7.64706232161288e-13, 3.4601122117664747e-06, 0.0, 0.0, 0.0, 6.325418954958387e-08]",3
1551447884982624952,,8950,,1551447884,904891491,"""gps""",,2,0,22.3208991696,87.3111166451,7.277,"[3.5146094842514153e-06, 8.62939091191345e-13, 0.0, 8.629390910854659e-13, 3.514606233152951e-06, 0.0, 0.0, 0.0, 1.2466047129027064e-07]",3
1551447885032763435,,8951,,1551447884,954873562,"""gps""",,2,0,22.3208991718,87.3111166445,7.277,"[3.534623947299545e-06, 1.0050926394039077e-12, 0.0, 1.0050926392980285e-12, 3.5346201613497397e-06, 0.0, 0.0, 0.0, 1.2559860944441066e-07]",3
1551447885082569783,,8952,,1551447884,979864836,"""gps""",,2,0,22.3208991724,87.3111166443,7.277,"[3.5282142032108793e-06, 1.0265301960542085e-12, 0.0, 1.0265301960542085e-12, 3.5282103367584542e-06, 0.0, 0.0, 0.0, 1.1211949653796497e-07]",3
1551447885132767455,,8953,,1551447885,29879808,"""gps""",,2,0,22.3208991733,87.3111166441,7.277,"[3.5000613527688655e-06, 9.41554128555917e-13, 0.0, 9.41554128555917e-13, 3.500057806561452e-06, 0.0, 0.0, 0.0, 8.75258732351985e-08]",3
1551447885182598617,,8954,,1551447885,79867125,"""gps""",,2,0,22.3208991744,87.3111166438,7.277,"[3.4790876251096533e-06, 8.721749809000777e-13, 0.0, 8.721749809000777e-13, 3.4790843404263822e-06, 0.0, 0.0, 0.0, 7.618785743811375e-08]",3
1551447885207705671,,8955,,1551447885,79867125,"""gps""",,2,0,22.3208991744,87.3111166438,7.277,"[3.4790876251096533e-06, 8.721749809000777e-13, 0.0, 8.721749809000777e-13, 3.4790843404263822e-06, 0.0, 0.0, 0.0, 7.618785743811375e-08]",3
1551447885233471348,,8956,,1551447885,129913807,"""gps""",,2,0,22.3208991774,87.311116643,7.277,"[3.57465187026668e-06, 1.1928623517327923e-12, 0.0, 1.1928623517327923e-12, 3.5746473784202513e-06, 0.0, 0.0, 0.0, 1.428023215133086e-07]",3
1551447885257637721,,8957,,1551447885,179888487,"""gps""",,2,0,22.3208991787,87.3111166427,7.277,"[3.5570024561314316e-06, 1.2116481694624852e-12, 0.0, 1.211648169250727e-12, 3.5569978937081745e-06, 0.0, 0.0, 0.0, 1.096195943430977e-07]",3
1551447885308017570,,8958,,1551447885,204911232,"""gps""",,2,0,22.3208991787,87.3111166426,7.277,"[3.5362609413076877e-06, 1.1081212049048945e-12, 0.0, 1.1081212049048945e-12, 3.5362567687764957e-06, 0.0, 0.0, 0.0, 9.12522864703677e-08]",3
1551447885357590856,,8959,,1551447885,254864931,"""gps""",,2,0,22.3208991779,87.3111166429,7.277,"[3.5062323505445857e-06, 8.206803347555818e-13, 0.0, 8.206803347555818e-13, 3.506229260514507e-06, 0.0, 0.0, 0.0, 7.691860798999453e-08]",3
1551447885407707126,,8960,,1551447885,304907084,"""gps""",,2,0,22.3208991779,87.3111166429,7.277,"[3.4891071868146413e-06, 6.546342460319666e-13, 0.0, 6.546342460319666e-13, 3.489104722089158e-06, 0.0, 0.0, 0.0, 7.490288933831485e-08]",3
1551447885432632043,,8961,,1551447885,329899073,"""gps""",,2,0,22.320899178,87.3111166429,7.277,"[3.471817747816135e-06, 5.988844613731491e-13, 0.0, 5.9888446126727e-13, 3.4718154930338798e-06, 0.0, 0.0, 0.0, 6.560043346005033e-08]",3
1551447885482575306,,8962,,1551447885,379864693,"""gps""",,2,0,22.3208991788,87.3111166426,7.277,"[3.449208698653188e-06, 5.515156344700604e-13, 0.0, 5.515156344700604e-13, 3.4492066222078606e-06, 0.0, 0.0, 0.0, 6.152582502628992e-08]",3
1551447885533222659,,8963,,1551447885,429887533,"""gps""",,2,0,22.3208991812,87.311116642,7.277,"[3.5095348495912876e-06, 6.585984899270368e-13, 0.0, 6.585984900329159e-13, 3.509532369898605e-06, 0.0, 0.0, 0.0, 1.251347067998582e-07]",3
1551447885583556925,,8964,,1551447885,479866505,"""gps""",,2,0,22.3208991836,87.3111166413,7.277,"[3.6759593122152178e-06, 8.841045391426151e-13, 0.0, 8.84104539036736e-13, 3.675955983649496e-06, 0.0, 0.0, 0.0, 1.7986372251711457e-07]",3
1551447885607669699,,8965,,1551447885,529890537,"""gps""",,2,0,22.3208991842,87.3111166412,7.277,"[3.728825434799022e-06, 8.179383346276859e-13, 0.0, 8.179383346276859e-13, 3.7288223553337433e-06, 0.0, 0.0, 0.0, 1.6221007576465264e-07]",3
1551447885657641832,,8966,,1551447885,579860687,"""gps""",,2,0,22.3208991842,87.3111166412,7.277,"[3.663019937766877e-06, 6.624278129085541e-13, 0.0, 6.62427812802675e-13, 3.663017443571689e-06, 0.0, 0.0, 0.0, 9.94148122492561e-08]",3
1551447885707887596,,8967,,1551447885,604862928,"""gps""",,2,0,22.320899184,87.3111166413,7.277,"[3.6343392720180285e-06, 5.960892899166596e-13, 0.0, 5.960892899166596e-13, 3.6343370275797185e-06, 0.0, 0.0, 0.0, 8.420796995027691e-08]",3
1551447885757566334,,8968,,1551447885,629888058,"""gps""",,2,0,22.3208991831,87.3111166415,7.277,"[3.616743033049061e-06, 4.751601855001433e-13, 0.0, 4.751601856060224e-13, 3.6167412436589893e-06, 0.0, 0.0, 0.0, 8.152114564262184e-08]",3
1551447885807818220,,8969,,1551447885,679865360,"""gps""",,2,0,22.3208991795,87.3111166424,7.277,"[3.702251099348334e-06, 2.032219201921883e-13, 0.0, 2.032219201921883e-13, 3.7022503335598115e-06, 0.0, 0.0, 0.0, 1.592055324669384e-07]",3
1551447885833893507,,8970,,1551447885,729862213,"""gps""",,2,0,22.3208991744,87.3111166438,7.277,"[3.789797454223838e-06, 1.813558162219492e-13, 0.0, 1.813558162219492e-13, 3.7897967723054145e-06, 0.0, 0.0, 0.0, 1.685872034454524e-07]",3
1551447885882833223,,8971,,1551447885,779906988,"""gps""",,2,0,22.3208991621,87.3111166471,7.277,"[5.485341204461309e-06, 1.8476919340444284e-12, 0.0, 1.847691934467945e-12, 5.485334270116214e-06, 0.0, 0.0, 0.0, 3.655161884939904e-07]",3
1551447885932619409,,8972,,1551447885,829867125,"""gps""",,2,0,22.3208991544,87.3111166491,7.277,"[5.80142055355823e-06, 3.784362018032159e-12, 0.0, 3.784362018243917e-12, 5.801406350149127e-06, 0.0, 0.0, 0.0, 2.9503270248642135e-07]",3
1551447885982777377,,8973,,1551447885,879915714,"""gps""",,2,0,22.3208991463,87.3111166513,7.277,"[5.906736390829101e-06, 5.611640589337866e-12, 0.0, 5.611640589337866e-12, 5.906715325957727e-06, 0.0, 0.0, 0.0, 3.006148629959648e-07]",3
1551447886033534753,,8974,,1551447885,905813694,"""gps""",,2,0,22.3208991395,87.3111166531,7.277,"[6.506328409843081e-06, 8.082835087548125e-12, 0.0, 8.082835087548125e-12, 6.506298064803206e-06, 0.0, 0.0, 0.0, 3.705651105163923e-07]",3
1551447886082695972,,8975,,1551447885,954867840,"""gps""",,2,0,22.3208991204,87.3111166582,7.277,"[9.661865367311457e-06, 1.8112280341703633e-11, 0.0, 1.811228034212715e-11, 9.661797353091674e-06, 0.0, 0.0, 0.0, 4.475506667141879e-07]",3
1551447886108482493,,8976,,1551447886,4868031,"""gps""",,2,0,22.320899105,87.3111166623,7.277,"[1.0253937388541604e-05, 2.37559131124082e-11, 0.0, 2.37559131124082e-11, 1.0253848166466412e-05, 0.0, 0.0, 0.0, 4.051216042188677e-07]",3
1551447886157625211,,8977,,1551447886,105137587,"""gps""",,2,0,22.3208990686,87.3111166719,7.277,"[1.2508489036604099e-05, 3.9047842817134884e-11, 0.0, 3.9047842817134884e-11, 1.250834233307582e-05, 0.0, 0.0, 0.0, 4.330053660811734e-07]",3
1551447886209062504,,8978,,1551447886,105137587,"""gps""",,2,0,22.3208990686,87.3111166719,7.277,"[1.2508489036604099e-05, 3.9047842817134884e-11, 0.0, 3.9047842817134884e-11, 1.250834233307582e-05, 0.0, 0.0, 0.0, 4.330053660811734e-07]",3
1551447886259892953,,8979,,1551447886,179863691,"""gps""",,2,0,22.320899039,87.3111166798,7.277,"[1.3735541997637604e-05, 4.6959617775205485e-11, 0.0, 4.695961777478197e-11, 1.3735365566094135e-05, 0.0, 0.0, 0.0, 4.3608045119362937e-07]",3
1551447886307691234,,8980,,1551447886,230593443,"""gps""",,2,0,22.3208990211,87.3111166845,7.277,"[1.357318470578515e-05, 4.760793333036324e-11, 0.0, 4.760793333036324e-11, 1.3573005859164298e-05, 0.0, 0.0, 0.0, 4.2096928415907315e-07]",3
1551447886332747996,,8981,,1551447886,279870510,"""gps""",,2,0,22.3208990033,87.3111166893,7.277,"[1.3546622886270085e-05, 4.824242253633e-11, 0.0, 4.824242253633e-11, 1.3546441648909461e-05, 0.0, 0.0, 0.0, 4.2613158113091395e-07]",3
1551447886382718336,,8982,,1551447886,279870510,"""gps""",,2,0,22.3208990033,87.3111166893,7.277,"[1.3546622886270085e-05, 4.824242253633e-11, 0.0, 4.824242253633e-11, 1.3546441648909461e-05, 0.0, 0.0, 0.0, 4.2613158113091395e-07]",3
1551447886433241494,,8983,,1551447886,304869890,"""gps""",,2,0,22.3208989929,87.311116692,7.277,"[1.3572280847401805e-05, 4.875302568768363e-11, 0.0, 4.875302568768363e-11, 1.3572097680797607e-05, 0.0, 0.0, 0.0, 4.268584835261654e-07]",3
1551447886483569846,,8984,,1551447886,455128193,"""gps""",,2,0,22.3208989229,87.3111167107,7.277,"[3.011678505954037e-05, 2.7446853178925086e-10, 0.0, 2.7446853178840383e-10, 3.0115753605983063e-05, 0.0, 0.0, 0.0, 1.5677294118960716e-05]",3
1551447886508013800,,8985,,1551447886,455128193,"""gps""",,2,0,22.3208989318,87.3111167083,7.277,"[1.8740192462278516e-05, 8.73939350749437e-11, 0.0, 8.73939350749437e-11, 1.8739864037470886e-05, 0.0, 0.0, 0.0, 2.46075918218169e-07]",3
1551447886532632556,,8986,,1551447886,455128193,"""gps""",,2,0,22.320898928,87.3111167093,7.277,"[1.3630892972104884e-05, 4.1690095244866345e-11, 0.0, 4.1690095244866345e-11, 1.3630736301974434e-05, 0.0, 0.0, 0.0, 1.2401121944246615e-07]",3
1551447886559261763,,8987,,1551447886,455128193,"""gps""",,2,0,22.320898928,87.3111167093,7.277,"[1.3630892972104884e-05, 4.1690095244866345e-11, 0.0, 4.1690095244866345e-11, 1.3630736301974434e-05, 0.0, 0.0, 0.0, 1.2401121944246615e-07]",3
1551447886608332845,,8988,,1551447886,504901171,"""gps""",,2,0,22.320898878,87.3111167226,7.277,"[1.958997535279756e-05, 5.6608924380124024e-11, 0.0, 5.660892437927699e-11, 1.9589762604422348e-05, 0.0, 0.0, 0.0, 4.773626559596307e-07]",3
1551447886659449220,,8989,,1551447886,631023645,"""gps""",,2,0,22.3208986412,87.3111167855,7.277,"[0.00023734859717672172, 4.99246065320568e-09, 0.0, 4.992460653198904e-09, 0.00023732983125900392, 0.0, 0.0, 0.0, 0.00023302187559574793]",3
1551447886710197676,,8990,,1551447886,631023645,"""gps""",,2,0,22.3208987225,87.3111167639,7.277,"[4.129555300605364e-05, 1.3058351556342396e-10, 0.0, 1.3058351556511803e-10, 4.129506216202087e-05, 0.0, 0.0, 0.0, 2.4973207228586e-07]",3
1551447886735238429,,8991,,1551447886,631023645,"""gps""",,2,0,22.3208986859,87.3111167737,7.277,"[2.2616396795997628e-05, 3.865674721227245e-11, 0.0, 3.865674721057838e-11, 2.2616251491028355e-05, 0.0, 0.0, 0.0, 1.2493298215959113e-07]",3
1551447886758041658,,8992,,1551447886,679908991,"""gps""",,2,0,22.3208985227,87.3111168171,7.277,"[5.5574333797237836e-05, 1.0165742114878794e-10, 0.0, 1.0165742114878794e-10, 5.557395174458152e-05, 0.0, 0.0, 0.0, 4.974858849741929e-07]",3
1551447886785004894,,8993,,1551447886,679908991,"""gps""",,2,0,22.3208985227,87.3111168171,7.277,"[5.5574333797237836e-05, 1.0165742114878794e-10, 0.0, 1.0165742114878794e-10, 5.557395174458152e-05, 0.0, 0.0, 0.0, 4.974858849741929e-07]",3
1551447886833914394,,8994,,1551447886,729864597,"""gps""",,2,0,22.320898349,87.3111168633,7.277,"[7.15202240873048e-05, 1.2526023185065204e-10, 0.0, 1.252602318472639e-10, 7.151975324541358e-05, 0.0, 0.0, 0.0, 4.98922407207342e-07]",3
1551447886882917056,,8995,,1551447886,857483387,"""gps""",,2,0,22.3208980085,87.3111169538,7.277,"[0.0005239980910229734, 1.6613540384602474e-08, 0.0, 1.661354038462958e-08, 0.0005239356449153633, 0.0, 0.0, 0.0, 0.0005512814959169779]",3
1551447886934066406,,8996,,1551447886,857483387,"""gps""",,2,0,22.3208981082,87.3111169273,7.277,"[2.386130738759072e-05, 3.093257819482796e-11, 0.0, 3.093257819482796e-11, 2.3861191119831116e-05, 0.0, 0.0, 0.0, 1.2497166337328423e-07]",3
1551447886983445620,,8997,,1551447886,857483387,"""gps""",,2,0,22.3208981082,87.3111169273,7.277,"[2.386130738759072e-05, 3.093257819482796e-11, 0.0, 3.093257819482796e-11, 2.3861191119831116e-05, 0.0, 0.0, 0.0, 1.2497166337328423e-07]",3
1551447887008088838,,8998,,1551447886,904933214,"""gps""",,2,0,22.320897827,87.3111170022,7.277,"[6.977237028467149e-05, 1.1076586928554966e-10, 0.0, 1.1076586928554966e-10, 6.977195445626063e-05, 0.0, 0.0, 0.0, 4.988054814629191e-07]",3
1551447887057631490,,8999,,1551447886,979885817,"""gps""",,2,0,22.3208975166,87.3111170848,7.277,"[7.49078887468428e-05, 1.274860469537638e-10, 0.0, 1.274860469537638e-10, 7.490741008969601e-05, 0.0, 0.0, 0.0, 4.99069363643756e-07]",3
1551447887108500540,,9000,,1551447887,29874086,"""gps""",,2,0,22.3208973163,87.311117138,7.277,"[7.641311388106971e-05, 1.2078602283941905e-10, 0.0, 1.2078602283603092e-10, 7.641265869810828e-05, 0.0, 0.0, 0.0, 4.991575754077502e-07]",3
1551447887157849445,,9001,,1551447887,79883099,"""gps""",,2,0,22.3208972164,87.3111171645,7.277,"[7.686753809409215e-05, 1.2510977983245792e-10, 0.0, 1.251097798290698e-10, 7.686706720953028e-05, 0.0, 0.0, 0.0, 4.991864379300546e-07]",3
1551447887182846458,,9002,,1551447887,79883099,"""gps""",,2,0,22.3208972164,87.3111171645,7.277,"[7.686753809409215e-05, 1.2510977983245792e-10, 0.0, 1.251097798290698e-10, 7.686706720953028e-05, 0.0, 0.0, 0.0, 4.991864379300546e-07]",3
1551447887232684490,,9003,,1551447887,213836432,"""gps""",,2,0,22.3208959948,87.3111174892,7.277,"[0.006806410632985314, 1.6363983741944817e-07, 0.0, 1.6363983741944817e-07, 0.006805795505003292, 0.0, 0.0, 0.0, 0.00811231436237897]",3
1551447887282751690,,9004,,1551447887,213836432,"""gps""",,2,0,22.3208967888,87.3111172782,7.277,"[4.963537001224888e-05, 8.655656251219481e-12, 0.0, 8.655656251219481e-12, 4.963533747532843e-05, 0.0, 0.0, 0.0, 2.499922959008745e-07]",3
1551447887332765407,,9005,,1551447887,254864931,"""gps""",,2,0,22.3208962714,87.3111174157,7.277,"[8.139258088955378e-05, 1.0252817107955173e-10, 0.0, 1.0252817107955173e-10, 8.13921956161496e-05, 0.0, 0.0, 0.0, 4.994325961956859e-07]",3
1551447887383471670,,9006,,1551447887,254864931,"""gps""",,2,0,22.3208962714,87.3111174157,7.277,"[8.139258088955378e-05, 1.0252817107955173e-10, 0.0, 1.0252817107955173e-10, 8.13921956161496e-05, 0.0, 0.0, 0.0, 4.994325961956859e-07]",3
1551447887407756360,,9007,,1551447887,304886103,"""gps""",,2,0,22.320896015,87.3111174839,7.277,"[8.324805290821484e-05, 1.1074891568732927e-10, 0.0, 1.1074891568394114e-10, 8.324763675787483e-05, 0.0, 0.0, 0.0, 4.994974992117243e-07]",3
1551447887457732018,,9008,,1551447887,354911804,"""gps""",,2,0,22.3208957477,87.3111175549,7.277,"[8.362144292609397e-05, 1.0950581274618847e-10, 0.0, 1.0950581275296473e-10, 8.362103042649028e-05, 0.0, 0.0, 0.0, 4.995152699635868e-07]",3
1551447887507905050,,9009,,1551447887,454921722,"""gps""",,2,0,22.3208951775,87.3111177063,7.277,"[8.552138406289107e-05, 1.0322558551613707e-10, 0.0, 1.032255855195252e-10, 8.552099516597858e-05, 0.0, 0.0, 0.0, 4.995876155153201e-07]",3
1551447887557597393,,9010,,1551447887,479906321,"""gps""",,2,0,22.3208950429,87.311117742,7.277,"[8.496776786093658e-05, 1.0538922733365885e-10, 0.0, 1.0538922733365885e-10, 8.496737096618662e-05, 0.0, 0.0, 0.0, 4.995664041781911e-07]",3
1551447887607883586,,9011,,1551447887,504869699,"""gps""",,2,0,22.3208948985,87.3111177804,7.277,"[8.48742156898092e-05, 1.0549972059289503e-10, 0.0, 1.054997205895069e-10, 8.487381840720308e-05, 0.0, 0.0, 0.0, 4.99563166965983e-07]",3
1551447887657582249,,9012,,1551447887,554868460,"""gps""",,2,0,22.3208945923,87.3111178616,7.277,"[8.677257510234727e-05, 9.825512775832736e-11, 0.0, 9.825512776171549e-11, 8.677220513285614e-05, 0.0, 0.0, 0.0, 4.996347813412841e-07]",3
1551447887682633233,,9013,,1551447887,611054659,"""gps""",,2,0,22.3208942349,87.3111179565,7.277,"[9.002831258515048e-05, 1.0214479031345333e-10, 0.0, 1.0214479031345333e-10, 9.002792796483271e-05, 0.0, 0.0, 0.0, 4.99744581775906e-07]",3
1551447887732742934,,9014,,1551447887,654881716,"""gps""",,2,0,22.3208939531,87.3111180313,7.277,"[8.72775203957426e-05, 9.071681444843623e-11, 0.0, 9.07168144450481e-11, 8.727717885457285e-05, 0.0, 0.0, 0.0, 4.996532143977806e-07]",3
1551447887783002167,,9015,,1551447887,679943800,"""gps""",,2,0,22.320893785,87.3111180759,7.277,"[8.890751177618901e-05, 8.817532953583223e-11, 0.0, 8.817532953583223e-11, 8.89071797807804e-05, 0.0, 0.0, 0.0, 4.997086190492889e-07]",3
1551447887832747453,,9016,,1551447887,729851723,"""gps""",,2,0,22.3208934517,87.3111181644,7.277,"[8.885800266640194e-05, 8.878970633071346e-11, 0.0, 8.878970633071346e-11, 8.885766781386837e-05, 0.0, 0.0, 0.0, 4.997062608187928e-07]",3
1551447887857650701,,9017,,1551447887,779865980,"""gps""",,2,0,22.3208930752,87.3111182642,7.277,"[9.095581788481186e-05, 7.691581206109165e-11, 0.0, 7.691581206109165e-11, 9.095552801766854e-05, 0.0, 0.0, 0.0, 4.997728455558395e-07]",3
1551447887907600266,,9018,,1551447887,829887152,"""gps""",,2,0,22.3208927065,87.311118362,7.277,"[9.09897805139749e-05, 7.725547760247193e-11, 0.0, 7.72554775990838e-11, 9.09894893708284e-05, 0.0, 0.0, 0.0, 4.997734827980691e-07]",3
1551447887957649414,,9019,,1551447887,854864359,"""gps""",,2,0,22.3208925167,87.3111184124,7.277,"[9.040308036977597e-05, 8.089488734297902e-11, 0.0, 8.089488733959089e-11, 9.040277587613732e-05, 0.0, 0.0, 0.0, 4.997554078596417e-07]",3
1551447888007778162,,9020,,1551447887,904860735,"""gps""",,2,0,22.3208920165,87.3111185452,7.277,"[9.547777372786413e-05, 4.416073059396999e-11, 0.0, 4.416073059396999e-11, 9.547760742509513e-05, 0.0, 0.0, 0.0, 4.998969061280996e-07]",3
1551447888057706992,,9021,,1551447887,954878330,"""gps""",,2,0,22.3208915799,87.3111186613,7.277,"[9.359697242066084e-05, 6.014557320070668e-11, 0.0, 6.014557320070668e-11, 9.359674688277553e-05, 0.0, 0.0, 0.0, 4.998478904115726e-07]",3
1551447888082571568,,9022,,1551447888,5133390,"""gps""",,2,0,22.3208911817,87.3111187672,7.277,"[9.159256413656368e-05, 7.34033633639883e-11, 0.0, 7.340336336737643e-11, 9.159228836537426e-05, 0.0, 0.0, 0.0, 4.99791148418686e-07]",3
1551447888133173690,,9023,,1551447888,54907560,"""gps""",,2,0,22.3208907796,87.3111188743,7.277,"[9.211334343013882e-05, 7.053580853080832e-11, 0.0, 7.053580852742019e-11, 9.211307842229156e-05, 0.0, 0.0, 0.0, 4.998065113625702e-07]",3
1551447888182734373,,9024,,1551447888,104885340,"""gps""",,2,0,22.3208903452,87.31111899,7.277,"[9.289344098176031e-05, 6.497117063848797e-11, 0.0, 6.497117063848797e-11, 9.28931974766291e-05, 0.0, 0.0, 0.0, 4.998286636945788e-07]",3
1551447888232941812,,9025,,1551447888,104885340,"""gps""",,2,0,22.3208903452,87.31111899,7.277,"[9.289344098176031e-05, 6.497117063848797e-11, 0.0, 6.497117063848797e-11, 9.28931974766291e-05, 0.0, 0.0, 0.0, 4.998286636945788e-07]",3
1551447888282596673,,9026,,1551447888,179864883,"""gps""",,2,0,22.3208895982,87.3111191901,7.277,"[9.334940853148679e-05, 6.345426732952517e-11, 0.0, 6.34542673329133e-11, 9.334917212851034e-05, 0.0, 0.0, 0.0, 4.998407320702449e-07]",3
1551447888307574458,,9027,,1551447888,229952574,"""gps""",,2,0,22.3208891507,87.3111193101,7.277,"[9.324311959994346e-05, 6.321214669866189e-11, 0.0, 6.321214670205002e-11, 9.324288391370013e-05, 0.0, 0.0, 0.0, 4.998382429189858e-07]",3
1551447888357705864,,9028,,1551447888,279890537,"""gps""",,2,0,22.3208886945,87.3111194328,7.277,"[9.32672835742292e-05, 6.327001503755327e-11, 0.0, 6.327001503755327e-11, 9.326704884847672e-05, 0.0, 0.0, 0.0, 4.998388331477014e-07]",3
1551447888407830105,,9029,,1551447888,304872513,"""gps""",,2,0,22.3208884705,87.311119493,7.277,"[9.381469665769127e-05, 5.896629062782685e-11, 0.0, 5.896629063121498e-11, 9.381447780041407e-05, 0.0, 0.0, 0.0, 4.998537179935688e-07]",3
1551447888457741606,,9030,,1551447888,354864597,"""gps""",,2,0,22.3208878979,87.3111196472,7.277,"[9.689656709563455e-05, 3.24317653895706e-11, 0.0, 3.243176539634686e-11, 9.689644721776213e-05, 0.0, 0.0, 0.0, 4.99931232295533e-07]",3
1551447888482582798,,9031,,1551447888,404869795,"""gps""",,2,0,22.320887427,87.3111197741,7.277,"[9.41489278181987e-05, 5.657422355023409e-11, 0.0, 5.657422355023409e-11, 9.41487182940405e-05, 0.0, 0.0, 0.0, 4.998625973601399e-07]",3
1551447888535756631,,9032,,1551447888,404869795,"""gps""",,2,0,22.320887427,87.3111197741,7.277,"[9.41489278181987e-05, 5.657422355023409e-11, 0.0, 5.657422355023409e-11, 9.41487182940405e-05, 0.0, 0.0, 0.0, 4.998625973601399e-07]",3
1551447888557586825,,9033,,1551447888,479891062,"""gps""",,2,0,22.3208866987,87.3111199702,7.277,"[9.416622503257088e-05, 5.6598765733569586e-11, 0.0, 5.6598765730181454e-11, 9.41660152757711e-05, 0.0, 0.0, 0.0, 4.998630093330877e-07]",3
1551447888607601536,,9034,,1551447888,529867649,"""gps""",,2,0,22.3208860717,87.3111201393,7.277,"[9.469453952771589e-05, 5.2317105065058074e-11, 0.0, 5.2317105065058074e-11, 9.469434565227694e-05, 0.0, 0.0, 0.0, 4.998768149988492e-07]",3
1551447888657948001,,9035,,1551447888,579869986,"""gps""",,2,0,22.3208855546,87.3111202791,7.277,"[9.52004403527487e-05, 4.9092940612927754e-11, 0.0, 4.9092940616315885e-11, 9.520025926704397e-05, 0.0, 0.0, 0.0, 4.998895947759942e-07]",3
1551447888683149579,,9036,,1551447888,604866028,"""gps""",,2,0,22.3208853015,87.3111203474,7.277,"[9.477909361037167e-05, 5.201500725092716e-11, 0.0, 5.2015007254315295e-11, 9.477890165144172e-05, 0.0, 0.0, 0.0, 4.998789381439032e-07]",3
1551447888733035299,,9037,,1551447888,629869461,"""gps""",,2,0,22.3208850462,87.3111204168,7.277,"[9.467955689365507e-05, 5.2711650752005224e-11, 0.0, 5.2711650755393356e-11, 9.467936235199577e-05, 0.0, 0.0, 0.0, 4.998763947284816e-07]",3
1551447888782589789,,9038,,1551447888,680056810,"""gps""",,2,0,22.320884529,87.3111205573,7.277,"[9.478767902740588e-05, 5.2096342220882014e-11, 0.0, 5.2096342224270146e-11, 9.47874880022748e-05, 0.0, 0.0, 0.0, 4.998791902390101e-07]",3
1551447888832671097,,9039,,1551447888,729881048,"""gps""",,2,0,22.3208838702,87.3111207362,7.277,"[9.742323769428635e-05, 2.781294830472088e-11, 0.0, 2.781294830472088e-11, 9.742313564484648e-05, 0.0, 0.0, 0.0, 4.999434899540598e-07]",3
1551447888882798475,,9040,,1551447888,754870892,"""gps""",,2,0,22.3208836061,87.3111208081,7.277,"[9.556129146628561e-05, 4.6168297165177525e-11, 0.0, 4.6168297165177525e-11, 9.556112239617595e-05, 0.0, 0.0, 0.0, 4.998986792184651e-07]",3
1551447888907702588,,9041,,1551447888,805043697,"""gps""",,2,0,22.3208830713,87.3111209535,7.277,"[9.513646153688729e-05, 4.949179394691454e-11, 0.0, 4.949179394691454e-11, 9.51362801465181e-05, 0.0, 0.0, 0.0, 4.998880921032108e-07]",3
1551447888957821143,,9042,,1551447888,904865503,"""gps""",,2,0,22.3208818432,87.3111212884,7.277,"[9.540829233139357e-05, 4.693165747723222e-11, 0.0, 4.693165747384409e-11, 9.540812092301133e-05, 0.0, 0.0, 0.0, 4.998949537414843e-07]",3
1551447889007792184,,9043,,1551447888,904865503,"""gps""",,2,0,22.3208818432,87.3111212884,7.277,"[9.540829233139357e-05, 4.693165747723222e-11, 0.0, 4.693165747384409e-11, 9.540812092301133e-05, 0.0, 0.0, 0.0, 4.998949537414843e-07]",3
1551447889058119986,,9044,,1551447888,929875135,"""gps""",,2,0,22.3208815542,87.3111213674,7.277,"[9.772158002116263e-05, 2.4986620567469652e-11, 0.0, 2.4986620567469652e-11, 9.772148875858843e-05, 0.0, 0.0, 0.0, 4.999503281524709e-07]",3
1551447889107738252,,9045,,1551447888,979867935,"""gps""",,2,0,22.3208809986,87.3111215192,7.277,"[9.565696952567408e-05, 4.5055269665285986e-11, 0.0, 4.5055269665285986e-11, 9.565680542590642e-05, 0.0, 0.0, 0.0, 4.999011355505696e-07]",3
1551447889132726952,,9046,,1551447889,79928875,"""gps""",,2,0,22.3208798035,87.3111218461,7.277,"[9.605544704701399e-05, 4.1580318622090346e-11, 0.0, 4.1580318618702214e-11, 9.605529571174149e-05, 0.0, 0.0, 0.0, 4.999109499205801e-07]",3
1551447889182729466,,9047,,1551447889,79928875,"""gps""",,2,0,22.3208798035,87.3111218461,7.277,"[9.605544704701399e-05, 4.1580318622090346e-11, 0.0, 4.1580318618702214e-11, 9.605529571174149e-05, 0.0, 0.0, 0.0, 4.999109499205801e-07]",3
1551447889232716237,,9048,,1551447889,104859829,"""gps""",,2,0,22.320879402,87.3111219559,7.277,"[9.541067807135762e-05, 4.713283368061377e-11, 0.0, 4.71328336840019e-11, 9.541050651122246e-05, 0.0, 0.0, 0.0, 4.998949727268985e-07]",3
1551447889282784065,,9049,,1551447889,154867887,"""gps""",,2,0,22.3208788009,87.3111221205,7.277,"[9.632032607783445e-05, 3.9352946309891435e-11, 0.0, 3.9352946309891435e-11, 9.632018309448361e-05, 0.0, 0.0, 0.0, 4.999173498402586e-07]",3
1551447889307786287,,9050,,1551447889,204972267,"""gps""",,2,0,22.3208781987,87.3111222853,7.277,"[9.5912996561462e-05, 4.2843694703900616e-11, 0.0, 4.2843694700512485e-11, 9.591284077428213e-05, 0.0, 0.0, 0.0, 4.999074664466964e-07]",3
1551447889333722529,,9051,,1551447889,254898787,"""gps""",,2,0,22.3208775904,87.3111224521,7.277,"[9.501132735559124e-05, 3.695438925908055e-11, 0.0, 3.695438925908055e-11, 9.501119298126465e-05, 0.0, 0.0, 0.0, 4.998847891231679e-07]",3
1551447889357592918,,9052,,1551447889,254898787,"""gps""",,2,0,22.3208775904,87.3111224521,7.277,"[9.501132735559124e-05, 3.695438925908055e-11, 0.0, 3.695438925908055e-11, 9.501119298126465e-05, 0.0, 0.0, 0.0, 4.998847891231679e-07]",3
1551447889408031760,,9053,,1551447889,306221485,"""gps""",,2,0,22.3208769443,87.3111226295,7.277,"[9.653923269096036e-05, 3.8926922361242396e-11, 0.0, 3.892692236463053e-11, 9.653909165619903e-05, 0.0, 0.0, 0.0, 4.99922673054231e-07]",3
1551447889457819861,,9054,,1551447889,354865551,"""gps""",,2,0,22.3208763434,87.3111227948,7.277,"[9.613187161500724e-05, 4.0943850130518815e-11, 0.0, 4.094385012713068e-11, 9.613172385219759e-05, 0.0, 0.0, 0.0, 4.999128196511142e-07]",3
1551447889507733627,,9055,,1551447889,454887390,"""gps""",,2,0,22.3208750777,87.3111231434,7.277,"[9.625854264972862e-05, 3.9755757290127784e-11, 0.0, 3.975575728673965e-11, 9.625839944243961e-05, 0.0, 0.0, 0.0, 4.999159067699587e-07]",3
1551447889534043858,,9056,,1551447889,454887390,"""gps""",,2,0,22.3208750777,87.3111231434,7.277,"[9.625854264972862e-05, 3.9755757290127784e-11, 0.0, 3.975575728673965e-11, 9.625839944243961e-05, 0.0, 0.0, 0.0, 4.999159067699587e-07]",3
1551447889582589898,,9057,,1551447889,504867315,"""gps""",,2,0,22.3208744499,87.3111233164,7.277,"[9.637092781487082e-05, 3.7955839985354166e-11, 0.0, 3.7955839981966034e-11, 9.637079085324345e-05, 0.0, 0.0, 0.0, 4.999186024552777e-07]",3
1551447889633113991,,9058,,1551447889,529871464,"""gps""",,2,0,22.3208741385,87.3111234023,7.277,"[9.636994307891523e-05, 3.877175232548636e-11, 0.0, 3.877175232887449e-11, 9.636980316964223e-05, 0.0, 0.0, 0.0, 4.999185904162637e-07]",3
1551447889682800439,,9059,,1551447889,632325411,"""gps""",,2,0,22.3208736432,87.3111235388,7.277,"[4.976325419024275e-05, 1.1392560267221657e-11, 0.0, 1.1392560268915723e-11, 4.976321307932932e-05, 0.0, 0.0, 0.0, 2.499949972048055e-07]",3
1551447889708073178,,9060,,1551447889,632325411,"""gps""",,2,0,22.3208733227,87.3111236272,7.277,"[2.494067308757615e-05, 2.861631736761805e-12, 0.0, 2.861631736761805e-12, 2.4940662761162085e-05, 0.0, 0.0, 0.0, 1.249987492886873e-07]",3
1551447889757683668,,9061,,1551447889,679885626,"""gps""",,2,0,22.3208722015,87.311123937,7.277,"[9.658499134267622e-05, 3.66027050520152e-11, 0.0, 3.6602705045238933e-11, 9.658485972319371e-05, 0.0, 0.0, 0.0, 4.999237637975991e-07]",3
1551447889809535648,,9062,,1551447889,705264568,"""gps""",,2,0,22.3208718579,87.311124032,7.277,"[9.647533202085704e-05, 3.846982842416018e-11, 0.0, 3.846982842416018e-11, 9.647519368495994e-05, 0.0, 0.0, 0.0, 4.999211224244872e-07]",3
1551447889858331548,,9063,,1551447889,810049057,"""gps""",,2,0,22.320871369,87.3111241674,7.277,"[4.9800459457482034e-05, 9.9028135511377e-12, 0.0, 9.902813552831766e-12, 4.9800423846799954e-05, 0.0, 0.0, 0.0, 2.4999579266082495e-07]",3
1551447889907601323,,9064,,1551447889,810049057,"""gps""",,2,0,22.3208710463,87.311124257,7.277,"[2.495001511981729e-05, 2.485587422022199e-12, 0.0, 2.485587422022199e-12, 2.495000618160362e-05, 0.0, 0.0, 0.0, 1.249989481563553e-07]",3
1551447889932981648,,9065,,1551447889,910493374,"""gps""",,2,0,22.3208697192,87.3111246257,7.277,"[0.011272930411521182, 1.4024557740653643e-07, 0.0, 1.4024557740653643e-07, 0.011272428925590496, 0.0, 0.0, 0.0, 0.013496250922549724]",3
1551447889982630349,,9066,,1551447889,910493374,"""gps""",,2,0,22.3208697286,87.3111246232,7.277,"[2.4944679917604318e-05, 6.854774706161566e-13, 0.0, 6.854774714631895e-13, 2.494467746649453e-05, 0.0, 0.0, 0.0, 1.2499884228180291e-07]",3
1551447890032785880,,9067,,1551447889,954871416,"""gps""",,2,0,22.3208685465,87.3111249517,7.277,"[9.686335686137568e-05, 3.396628312136605e-11, 0.0, 3.396628312136605e-11, 9.686323544491289e-05, 0.0, 0.0, 0.0, 4.999303939633764e-07]",3
1551447890082825213,,9068,,1551447890,4864693,"""gps""",,2,0,22.3208678739,87.3111251385,7.277,"[9.680704799074501e-05, 3.386540144991422e-11, 0.0, 3.386540144652609e-11, 9.680692680386756e-05, 0.0, 0.0, 0.0, 4.999290301720205e-07]",3
1551447890132974596,,9069,,1551447890,4864693,"""gps""",,2,0,22.3208678739,87.3111251385,7.277,"[9.680704799074501e-05, 3.386540144991422e-11, 0.0, 3.386540144652609e-11, 9.680692680386756e-05, 0.0, 0.0, 0.0, 4.999290301720205e-07]",3
1551447890160288164,,9070,,1551447890,79902887,"""gps""",,2,0,22.3208668521,87.3111254229,7.277,"[9.687220621143628e-05, 3.445100318371264e-11, 0.0, 3.445100318371264e-11, 9.687208376227698e-05, 0.0, 0.0, 0.0, 4.999305741942329e-07]",3
1551447890207708448,,9071,,1551447890,129885674,"""gps""",,2,0,22.3208661717,87.3111256124,7.277,"[9.686812909882162e-05, 3.42813735637105e-11, 0.0, 3.42813735637105e-11, 9.686800688629658e-05, 0.0, 0.0, 0.0, 4.999304807965984e-07]",3
1551447890257769793,,9072,,1551447890,179882050,"""gps""",,2,0,22.3208654935,87.3111258019,7.277,"[9.67646441419596e-05, 3.5537392530793225e-11, 0.0, 3.553739252740509e-11, 9.676451822846762e-05, 0.0, 0.0, 0.0, 4.999280263823326e-07]",3
1551447890307603178,,9073,,1551447890,179882050,"""gps""",,2,0,22.3208654935,87.3111258019,7.277,"[9.67646441419596e-05, 3.5537392530793225e-11, 0.0, 3.553739252740509e-11, 9.676451822846762e-05, 0.0, 0.0, 0.0, 4.999280263823326e-07]",3
1551447890357708552,,9074,,1551447890,229885101,"""gps""",,2,0,22.3208648083,87.3111259933,7.277,"[9.69530434607585e-05, 3.362041703453759e-11, 0.0, 3.3620417037925725e-11, 9.695292400424531e-05, 0.0, 0.0, 0.0, 4.99932482437624e-07]",3
1551447890383187229,,9075,,1551447890,304913044,"""gps""",,2,0,22.3208636075,87.3111263294,7.277,"[9.848541415815513e-05, 1.7555224662195792e-11, 0.0, 1.7555224662195792e-11, 9.848535191108562e-05, 0.0, 0.0, 0.0, 4.999674785224919e-07]",3
1551447890432953377,,9076,,1551447890,355916739,"""gps""",,2,0,22.3208629089,87.311126525,7.277,"[9.714245779376065e-05, 3.3109131488030666e-11, 0.0, 3.3109131488030666e-11, 9.714234037839404e-05, 0.0, 0.0, 0.0, 4.99936924540744e-07]",3
1551447890482811835,,9077,,1551447890,404894829,"""gps""",,2,0,22.3208622412,87.3111267121,7.277,"[9.7014718722589e-05, 3.30297681736078e-11, 0.0, 3.30297681736078e-11, 9.70146017310077e-05, 0.0, 0.0, 0.0, 4.999339381954769e-07]",3
1551447890532724773,,9078,,1551447890,404894829,"""gps""",,2,0,22.3208622412,87.3111267121,7.277,"[9.7014718722589e-05, 3.30297681736078e-11, 0.0, 3.30297681736078e-11, 9.70146017310077e-05, 0.0, 0.0, 0.0, 4.999339381954769e-07]",3
1551447890583165406,,9079,,1551447890,454925299,"""gps""",,2,0,22.320861495,87.3111269217,7.277,"[9.759163742951081e-05, 2.7159804048511923e-11, 0.0, 2.715980404512379e-11, 9.759154121898378e-05, 0.0, 0.0, 0.0, 4.999473370896906e-07]",3
1551447890609692001,,9080,,1551447890,529901981,"""gps""",,2,0,22.3208603157,87.3111272539,7.277,"[9.691498121271389e-05, 3.41756617343108e-11, 0.0, 3.417566174108706e-11, 9.691486092873076e-05, 0.0, 0.0, 0.0, 4.999315878979563e-07]",3
1551447890657893759,,9081,,1551447890,579871655,"""gps""",,2,0,22.3208596264,87.3111274489,7.277,"[9.71566265156174e-05, 3.2073166784794176e-11, 0.0, 3.2073166784794176e-11, 9.715651361716322e-05, 0.0, 0.0, 0.0, 4.99937232588292e-07]",3
1551447890707768755,,9082,,1551447890,629885197,"""gps""",,2,0,22.3208589486,87.3111276414,7.277,"[9.69073845199849e-05, 3.4536759489469304e-11, 0.0, 3.4536759489469304e-11, 9.690726416962073e-05, 0.0, 0.0, 0.0, 4.999314040103942e-07]",3
1551447890757769942,,9083,,1551447890,629885197,"""gps""",,2,0,22.3208589486,87.3111276414,7.277,"[9.69073845199849e-05, 3.4536759489469304e-11, 0.0, 3.4536759489469304e-11, 9.690726416962073e-05, 0.0, 0.0, 0.0, 4.999314040103942e-07]",3
1551447890782682913,,9084,,1551447890,729905605,"""gps""",,2,0,22.3208574158,87.3111280778,7.277,"[9.68931251104257e-05, 3.477428266605224e-11, 0.0, 3.477428266605224e-11, 9.689300434052445e-05, 0.0, 0.0, 0.0, 4.999310706448608e-07]",3
1551447890832771104,,9085,,1551447890,754894257,"""gps""",,2,0,22.3208570689,87.3111281772,7.277,"[9.850099074866339e-05, 1.7590714102629513e-11, 0.0, 1.7590714102629513e-11, 9.850092963237151e-05, 0.0, 0.0, 0.0, 4.999678233326134e-07]",3
1551447890882887366,,9086,,1551447890,804903269,"""gps""",,2,0,22.3208563887,87.3111283722,7.277,"[9.691999574441388e-05, 3.4701971392194376e-11, 0.0, 3.4701971392194376e-11, 9.691987609001539e-05, 0.0, 0.0, 0.0, 4.999316980285309e-07]",3
1551447890932657445,,9087,,1551447890,854869604,"""gps""",,2,0,22.3208557063,87.3111285684,7.277,"[9.693471509756857e-05, 3.443004431905039e-11, 0.0, 3.443004431905039e-11, 9.693459629479202e-05, 0.0, 0.0, 0.0, 4.999320508138194e-07]",3
1551447890983242933,,9088,,1551447890,854869604,"""gps""",,2,0,22.3208557063,87.3111285684,7.277,"[9.693471509756857e-05, 3.443004431905039e-11, 0.0, 3.443004431905039e-11, 9.693459629479202e-05, 0.0, 0.0, 0.0, 4.999320508138194e-07]",3
1551447891032758714,,9089,,1551447890,905162811,"""gps""",,2,0,22.3208550101,87.3111287693,7.277,"[9.703411460694016e-05, 3.4034720588295474e-11, 0.0, 3.4034720588295474e-11, 9.703399811994298e-05, 0.0, 0.0, 0.0, 4.999343910645197e-07]",3
1551447891057580228,,9090,,1551447890,979871035,"""gps""",,2,0,22.3208539968,87.3111290624,7.277,"[9.703447547028209e-05, 3.377749470707546e-11, 0.0, 3.377749470707546e-11, 9.703436076473516e-05, 0.0, 0.0, 0.0, 4.999344019798776e-07]",3
1551447891107777928,,9091,,1551447891,29869080,"""gps""",,2,0,22.3208533175,87.3111292595,7.277,"[9.691139844658305e-05, 3.4984947464646076e-11, 0.0, 3.4984947464646076e-11, 9.691127917533057e-05, 0.0, 0.0, 0.0, 4.999315035055369e-07]",3
1551447891157675193,,9092,,1551447891,79865217,"""gps""",,2,0,22.3208526391,87.3111294567,7.277,"[9.698772512500705e-05, 3.431523424448995e-11, 0.0, 3.431523424448995e-11, 9.698760864624436e-05, 0.0, 0.0, 0.0, 4.999333012407898e-07]",3
1551447891207602231,,9093,,1551447891,79865217,"""gps""",,2,0,22.3208526391,87.3111294567,7.277,"[9.698772512500705e-05, 3.431523424448995e-11, 0.0, 3.431523424448995e-11, 9.698760864624436e-05, 0.0, 0.0, 0.0, 4.999333012407898e-07]",3
1551447891257670217,,9094,,1551447891,129888296,"""gps""",,2,0,22.3208519648,87.3111296532,7.277,"[9.676179839501672e-05, 3.6248072814539564e-11, 0.0, 3.6248072817927695e-11, 9.676167530350844e-05, 0.0, 0.0, 0.0, 4.999279608339989e-07]",3
1551447891282579842,,9095,,1551447891,229868412,"""gps""",,2,0,22.3208506036,87.3111300517,7.277,"[9.706966689699855e-05, 3.3567507521286904e-11, 0.0, 3.3567507521286904e-11, 9.706955364454315e-05, 0.0, 0.0, 0.0, 4.9993522878592e-07]",3
1551447891332799682,,9096,,1551447891,279866219,"""gps""",,2,0,22.3208499399,87.3111302469,7.277,"[9.672842501977243e-05, 3.6914873857496e-11, 0.0, 3.691487386088413e-11, 9.672830141088e-05, 0.0, 0.0, 0.0, 4.999271640221264e-07]",3
1551447891382733429,,9097,,1551447891,329866171,"""gps""",,2,0,22.3208492817,87.3111304404,7.277,"[9.681206983612989e-05, 3.643341493975898e-11, 0.0, 3.643341493975898e-11, 9.681194774745565e-05, 0.0, 0.0, 0.0, 4.999291546650722e-07]",3
1551447891432868048,,9098,,1551447891,329866171,"""gps""",,2,0,22.3208492817,87.3111304404,7.277,"[9.681206983612989e-05, 3.643341493975898e-11, 0.0, 3.643341493975898e-11, 9.681194774745565e-05, 0.0, 0.0, 0.0, 4.999291546650722e-07]",3
1551447891482591779,,9099,,1551447891,381152868,"""gps""",,2,0,22.3208485935,87.3111306437,7.277,"[9.695892042388997e-05, 3.6868969269449655e-11, 0.0, 3.686896926606152e-11, 9.695879799562409e-05, 0.0, 0.0, 0.0, 4.999326281805744e-07]",3
1551447891507591068,,9100,,1551447891,404865265,"""gps""",,2,0,22.3208482779,87.3111307368,7.277,"[9.668527543254584e-05, 3.5980761220537035e-11, 0.0, 3.5980761220537035e-11, 9.668515551515438e-05, 0.0, 0.0, 0.0, 4.999261374219493e-07]",3
1551447891557757717,,9101,,1551447891,454900503,"""gps""",,2,0,22.3208476147,87.311130934,7.277,"[9.678264857837023e-05, 3.728760506808396e-11, 0.0, 3.728760506808396e-11, 9.678252597670835e-05, 0.0, 0.0, 0.0, 4.999284570945228e-07]",3
1551447891607578769,,9102,,1551447891,504943371,"""gps""",,2,0,22.3208469669,87.3111311265,7.277,"[9.668405194649978e-05, 3.818893596805543e-11, 0.0, 3.8188935964667296e-11, 9.668392558063472e-05, 0.0, 0.0, 0.0, 4.999261131306625e-07]",3
1551447891657669651,,9103,,1551447891,554886580,"""gps""",,2,0,22.3208463065,87.3111313238,7.277,"[9.676648952173371e-05, 3.7504116057586554e-11, 0.0, 3.7504116060974686e-11, 9.676636681399137e-05, 0.0, 0.0, 0.0, 4.999280787276709e-07]",3
1551447891682672090,,9104,,1551447891,579886198,"""gps""",,2,0,22.3208459783,87.3111314219,7.277,"[9.673030010742192e-05, 3.7781309276865155e-11, 0.0, 3.7781309276865155e-11, 9.673017592534346e-05, 0.0, 0.0, 0.0, 4.999272140840654e-07]",3
1551447891732913397,,9105,,1551447891,629872322,"""gps""",,2,0,22.3208453181,87.3111316196,7.277,"[9.675791912927954e-05, 3.7469269809927265e-11, 0.0, 3.7469269809927265e-11, 9.675779589026183e-05, 0.0, 0.0, 0.0, 4.999278719676264e-07]",3
1551447891782573561,,9106,,1551447891,679868221,"""gps""",,2,0,22.3208446604,87.3111318172,7.277,"[9.661404589052503e-05, 3.913873848428759e-11, 0.0, 3.9138738480899455e-11, 9.661391800291849e-05, 0.0, 0.0, 0.0, 4.999244429757635e-07]",3
1551447891832684476,,9107,,1551447891,729890585,"""gps""",,2,0,22.3208438347,87.311132066,7.277,"[9.838366784156572e-05, 1.974651639983149e-11, 0.0, 1.974651639983149e-11, 9.838360327712838e-05, 0.0, 0.0, 0.0, 4.999652228740529e-07]",3
1551447891858207138,,9108,,1551447891,779865742,"""gps""",,2,0,22.3208431718,87.3111322671,7.277,"[9.684000228483451e-05, 3.716536671108774e-11, 0.0, 3.716536671108774e-11, 9.683988223836839e-05, 0.0, 0.0, 0.0, 4.999298114024737e-07]",3
1551447891908379667,,9109,,1551447891,804863930,"""gps""",,2,0,22.3208428413,87.3111323673,7.277,"[9.679439851195128e-05, 3.756377310983397e-11, 0.0, 3.756377310644584e-11, 9.679427705342569e-05, 0.0, 0.0, 0.0, 4.999287348263665e-07]",3
1551447891958211766,,9110,,1551447891,854866743,"""gps""",,2,0,22.3208421767,87.3111325699,7.277,"[9.688637085332298e-05, 3.6847651439000624e-11, 0.0, 3.6847651439000624e-11, 9.68862531817972e-05, 0.0, 0.0, 0.0, 4.999309139946162e-07]",3
1551447892007572791,,9111,,1551447891,904942989,"""gps""",,2,0,22.3208413658,87.3111328172,7.277,"[9.667490928123824e-05, 3.9088021891903494e-11, 0.0, 3.9088021891903494e-11, 9.667478373929661e-05, 0.0, 0.0, 0.0, 4.999258967831984e-07]",3
1551447892057678291,,9112,,1551447891,954864740,"""gps""",,2,0,22.3208406724,87.3111330301,7.277,"[9.400921261306805e-05, 2.9062033456709246e-11, 0.0, 2.9062033453321114e-11, 9.400912074361897e-05, 0.0, 0.0, 0.0, 4.998583825983442e-07]",3
1551447892082574966,,9113,,1551447892,4869461,"""gps""",,2,0,22.3208400475,87.3111332221,7.277,"[9.650677267599503e-05, 4.105144428057962e-11, 0.0, 4.1051444287355885e-11, 9.650664197122709e-05, 0.0, 0.0, 0.0, 4.999218659936843e-07]",3
1551447892132992940,,9114,,1551447892,54879665,"""gps""",,2,0,22.320839397,87.3111334219,7.277,"[9.671346603485886e-05, 3.873265034713084e-11, 0.0, 3.873265034713084e-11, 9.671334268694846e-05, 0.0, 0.0, 0.0, 4.999268227038102e-07]",3
1551447892183857534,,9115,,1551447892,104889393,"""gps""",,2,0,22.3208385811,87.3111336756,7.277,"[9.667940470515998e-05, 3.9865101345883114e-11, 0.0, 3.9865101345883114e-11, 9.66792810279757e-05, 0.0, 0.0, 0.0, 4.999260067353821e-07]",3
1551447892232682253,,9116,,1551447892,129879475,"""gps""",,2,0,22.3208382416,87.3111337811,7.277,"[9.838031559160967e-05, 2.0343554013542214e-11, 0.0, 2.0343554010154082e-11, 9.838025178410213e-05, 0.0, 0.0, 0.0, 4.999651493003909e-07]",3
1551447892257786112,,9117,,1551447892,179865837,"""gps""",,2,0,22.3208375881,87.3111339872,7.277,"[9.670963658617871e-05, 4.018908479052892e-11, 0.0, 4.018908479391705e-11, 9.670951421799929e-05, 0.0, 0.0, 0.0, 4.999267136750718e-07]",3
1551447892307627417,,9118,,1551447892,229894876,"""gps""",,2,0,22.3208369193,87.311134198,7.277,"[9.691888890118879e-05, 3.7479855316194374e-11, 0.0, 3.747985531280624e-11, 9.691877318408236e-05, 0.0, 0.0, 0.0, 4.99931681266222e-07]",3
1551447892357662880,,9119,,1551447892,229894876,"""gps""",,2,0,22.3208369193,87.311134198,7.277,"[9.691888890118879e-05, 3.7479855316194374e-11, 0.0, 3.747985531280624e-11, 9.691877318408236e-05, 0.0, 0.0, 0.0, 4.99931681266222e-07]",3
1551447892407593153,,9120,,1551447892,279864073,"""gps""",,2,0,22.3208362637,87.3111344064,7.277,"[9.660409083529224e-05, 4.131758547833695e-11, 0.0, 4.1317585481725084e-11, 9.660396542072121e-05, 0.0, 0.0, 0.0, 4.999242042291643e-07]",3
1551447892436983603,,9121,,1551447892,379872084,"""gps""",,2,0,22.3208347927,87.3111348763,7.277,"[9.672265011825624e-05, 4.0601914747515934e-11, 0.0, 4.06019147441278e-11, 9.6722529129834e-05, 0.0, 0.0, 0.0, 4.999270242206191e-07]",3
1551447892483279606,,9122,,1551447892,379872084,"""gps""",,2,0,22.3208347927,87.3111348763,7.277,"[9.672265011825624e-05, 4.0601914747515934e-11, 0.0, 4.06019147441278e-11, 9.6722529129834e-05, 0.0, 0.0, 0.0, 4.999270242206191e-07]",3
1551447892507610553,,9123,,1551447892,429893017,"""gps""",,2,0,22.3208341206,87.3111350925,7.277,"[9.691588055822684e-05, 3.8072179808193614e-11, 0.0, 3.8072179808193614e-11, 9.691576576368131e-05, 0.0, 0.0, 0.0, 4.999316114217458e-07]",3
1551447892533759670,,9124,,1551447892,429893017,"""gps""",,2,0,22.3208341206,87.3111350925,7.277,"[9.691588055822684e-05, 3.8072179808193614e-11, 0.0, 3.8072179808193614e-11, 9.691576576368131e-05, 0.0, 0.0, 0.0, 4.999316114217458e-07]",3
1551447892582814739,,9125,,1551447892,504909754,"""gps""",,2,0,22.3208329852,87.3111354653,7.277,"[9.83037185297153e-05, 2.2302097976945002e-11, 0.0, 2.2302097976945002e-11, 9.830365305479325e-05, 0.0, 0.0, 0.0, 4.999634443476188e-07]",3
1551447892632581444,,9126,,1551447892,554869175,"""gps""",,2,0,22.3208323452,87.3111356777,7.277,"[9.670635678609267e-05, 4.114177288034996e-11, 0.0, 4.114177288034996e-11, 9.670623577254034e-05, 0.0, 0.0, 0.0, 4.999266367513228e-07]",3
1551447892682996637,,9127,,1551447892,604863644,"""gps""",,2,0,22.3208316992,87.3111358945,7.277,"[9.662184510998545e-05, 4.3302545695635434e-11, 0.0, 4.3302545699023566e-11, 9.662172374303753e-05, 0.0, 0.0, 0.0, 9.996985760950473e-07]",3
1551447892707703491,,9128,,1551447892,629866123,"""gps""",,2,0,22.3208313747,87.3111360033,7.277,"[9.662254080007438e-05, 4.331235723401732e-11, 0.0, 4.331235723740545e-11, 9.662241944672252e-05, 0.0, 0.0, 0.0, 9.996985941755744e-07]",3
1551447892758127732,,9129,,1551447892,679926157,"""gps""",,2,0,22.3208305706,87.3111362783,7.277,"[9.662760064308405e-05, 4.398953039531266e-11, 0.0, 4.398953039192453e-11, 9.66274802318637e-05, 0.0, 0.0, 0.0, 9.996989753362322e-07]",3
1551447892807601500,,9130,,1551447892,679926157,"""gps""",,2,0,22.3208305706,87.3111362783,7.277,"[9.662760064308405e-05, 4.398953039531266e-11, 0.0, 4.398953039192453e-11, 9.66274802318637e-05, 0.0, 0.0, 0.0, 9.996989753362322e-07]",3
1551447892858454079,,9131,,1551447892,779900312,"""gps""",,2,0,22.320829256,87.3111367329,7.277,"[9.633630767111373e-05, 4.418175910506929e-11, 0.0, 4.418175910506929e-11, 9.633619004113559e-05, 0.0, 0.0, 0.0, 9.996707341870658e-07]",3
1551447892907781062,,9132,,1551447892,831284046,"""gps""",,2,0,22.3208285688,87.3111369731,7.277,"[9.679275069251765e-05, 4.510535288031344e-11, 0.0, 4.510535288031344e-11, 9.679263076122322e-05, 0.0, 0.0, 0.0, 9.997143494382275e-07]",3
1551447892933269238,,9133,,1551447892,879864931,"""gps""",,2,0,22.3208277736,87.3111372566,7.277,"[9.66103506349551e-05, 4.531660891468072e-11, 0.0, 4.531660891468072e-11, 9.661023301376204e-05, 0.0, 0.0, 0.0, 9.99696879820809e-07]",3
1551447892982901717,,9134,,1551447892,929863214,"""gps""",,2,0,22.3208270646,87.3111375094,7.277,"[9.65454338368597e-05, 4.5175817757871564e-11, 0.0, 4.517581775448343e-11, 9.654531672902414e-05, 0.0, 0.0, 0.0, 9.996905095230214e-07]",3
1551447893032585214,,9135,,1551447892,979865789,"""gps""",,2,0,22.3208264061,87.311137749,7.277,"[9.662749296683087e-05, 4.598286186294578e-11, 0.0, 4.598286186633391e-11, 9.66273767772968e-05, 0.0, 0.0, 0.0, 9.996982337030492e-07]",3
1551447893082743305,,9136,,1551447893,4861832,"""gps""",,2,0,22.3208260789,87.3111378681,7.277,"[9.66325991267919e-05, 4.600389598140319e-11, 0.0, 4.600389597801506e-11, 9.663248299933045e-05, 0.0, 0.0, 0.0, 9.996986522762642e-07]",3
1551447893134698110,,9137,,1551447893,29952049,"""gps""",,2,0,22.3208257445,87.3111379898,7.277,"[9.66449499586552e-05, 4.602004018543237e-11, 0.0, 4.60200401888205e-11, 9.664483381856632e-05, 0.0, 0.0, 0.0, 9.996997592609734e-07]",3
1551447893158197644,,9138,,1551447893,104896069,"""gps""",,2,0,22.3208247723,87.3111383502,7.277,"[9.66395144597585e-05, 4.660139871445778e-11, 0.0, 4.6601398717845913e-11, 9.663939956673284e-05, 0.0, 0.0, 0.0, 9.99699020280012e-07]",3
1551447893207566834,,9139,,1551447893,154901028,"""gps""",,2,0,22.3208239494,87.3111386552,7.277,"[9.664126989043686e-05, 4.637334795475783e-11, 0.0, 4.637334795475783e-11, 9.664115559641281e-05, 0.0, 0.0, 0.0, 9.996990442288574e-07]",3
1551447893257770746,,9140,,1551447893,179891586,"""gps""",,2,0,22.32082362,87.3111387798,7.277,"[9.665115449392886e-05, 4.6360902404796135e-11, 0.0, 4.6360902404796135e-11, 9.665104024925265e-05, 0.0, 0.0, 0.0, 9.996999119304902e-07]",3
1551447893309504040,,9141,,1551447893,204937458,"""gps""",,2,0,22.3208232907,87.3111389045,7.277,"[9.665959375934234e-05, 4.707568227718521e-11, 0.0, 4.707568227718521e-11, 9.665948074861978e-05, 0.0, 0.0, 0.0, 9.997006382646755e-07]",3
1551447893359768871,,9142,,1551447893,254908085,"""gps""",,2,0,22.3208226449,87.3111391489,7.277,"[9.666155903690392e-05, 4.704557542619943e-11, 0.0, 4.704557542619943e-11, 9.666144622240442e-05, 0.0, 0.0, 0.0, 9.997006676635115e-07]",3
1551447893382681024,,9143,,1551447893,304906130,"""gps""",,2,0,22.320821972,87.3111394099,7.277,"[9.657593711190713e-05, 4.7644772455541487e-11, 0.0, 4.7644772455541487e-11, 9.657582630993863e-05, 0.0, 0.0, 0.0, 9.996923145010446e-07]",3
1551447893432610614,,9144,,1551447893,354861259,"""gps""",,2,0,22.3208213394,87.3111396553,7.277,"[9.666209242833745e-05, 4.778316820656394e-11, 0.0, 4.778316820656394e-11, 9.666198143122187e-05, 0.0, 0.0, 0.0, 9.99700392220342e-07]",3
1551447893482727927,,9145,,1551447893,404860258,"""gps""",,2,0,22.3208206794,87.3111399175,7.277,"[9.665937414505281e-05, 4.854095542468459e-11, 0.0, 4.854095542468459e-11, 9.665926481364768e-05, 0.0, 0.0, 0.0, 9.996999659195874e-07]",3
1551447893532591427,,9146,,1551447893,454888821,"""gps""",,2,0,22.3208200512,87.3111401671,7.277,"[9.666731282551431e-05, 4.8515861128333414e-11, 0.0, 4.851586112494528e-11, 9.666720366862183e-05, 0.0, 0.0, 0.0, 9.99700554891437e-07]",3
1551447893558034802,,9147,,1551447893,479871035,"""gps""",,2,0,22.3208197267,87.3111402985,7.277,"[9.666633128407985e-05, 4.8511995456309394e-11, 0.0, 4.8511995456309394e-11, 9.666622214223706e-05, 0.0, 0.0, 0.0, 9.997003739100765e-07]",3
1551447893607854598,,9148,,1551447893,479871035,"""gps""",,2,0,22.3208197267,87.3111402985,7.277,"[9.666633128407985e-05, 4.8511995456309394e-11, 0.0, 4.8511995456309394e-11, 9.666622214223706e-05, 0.0, 0.0, 0.0, 9.997003739100765e-07]",3
1551447893657631112,,9149,,1551447893,580095530,"""gps""",,2,0,22.3208184387,87.311140823,7.277,"[9.667356515009477e-05, 4.909399451503765e-11, 0.0, 4.909399451164952e-11, 9.667345759983509e-05, 0.0, 0.0, 0.0, 9.997007208412661e-07]",3
1551447893707743791,,9150,,1551447893,629877329,"""gps""",,2,0,22.3208177837,87.3111410937,7.277,"[9.667658825457219e-05, 4.968980013626725e-11, 0.0, 4.9689800139655384e-11, 9.6676482173273e-05, 0.0, 0.0, 0.0, 9.997008461417747e-07]",3
1551447893757869583,,9151,,1551447893,679872036,"""gps""",,2,0,22.3208171518,87.3111413578,7.277,"[9.668402517930917e-05, 4.9643007535819664e-11, 0.0, 4.9643007535819664e-11, 9.668391919310014e-05, 0.0, 0.0, 0.0, 9.997013830487613e-07]",3
