rosbagTimestamp,x,y,z
142207000000,-1.0,0.222314968705,-0.0187500007451
142207000000,0.751482665539,0.19177056849,-0.0187500007451
142207000000,1.0,0.153903588653,-0.0187500007451
142207000000,1.0,0.115775629878,-0.0187500007451
142238000000,0.045740108937,0.103512950242,-0.0187500007451
142238000000,-1.0,0.140040099621,-0.0187500007451
142238000000,-1.0,0.179011583328,-0.0187500007451
142241000000,-1.0,0.201919674873,-0.0187500007451
142251000000,1.0,0.161364287138,-0.0187500007451
142294000000,-1.0,0.193259894848,-0.0187500007451
142294000000,-1.0,0.230484470725,-0.0187500007451
142294000000,-1.0,0.268980205059,-0.0187500007451
142294000000,-1.0,0.307566821575,-0.0187500007451
142338000000,-0.536803424358,0.298205584288,-0.0187500007451
142338000000,0.945863962173,0.260500818491,-0.0187500007451
142338000000,1.0,0.222458451986,-0.0187500007451
142338000000,1.0,0.184328958392,-0.0187500007451
142381000000,0.299633920193,0.164063215256,-0.0187500007451
142381000000,-1.0,0.201841726899,-0.0187500007451
142381000000,-1.0,0.238810405135,-0.0187500007451
142382000000,-1.0,0.277361422777,-0.0187500007451
142382000000,-1.0,0.315084338188,-0.0187500007451
142407000000,0.221218064427,0.290620177984,-0.0187500007451
142407000000,0.864203095436,0.25474318862,-0.0187500007451
142411000000,-0.0591300539672,0.238309204578,-0.0187500007451
142421000000,-0.826464116573,0.237451776862,-0.0187500007451
142461000000,0.66774481535,0.207660451531,-0.0187500007451
142461000000,0.813609838486,0.176325902343,-0.0187500007451
142461000000,0.888594567776,0.14489005506,-0.0187500007451
142461000000,0.964698731899,0.113336741924,-0.0187500007451
142505000000,-1.0,0.139126494527,-0.0187500007451
142505000000,-1.0,0.175654441118,-0.0187500007451
142505000000,-1.0,0.212439239025,-0.0187500007451
142505000000,-1.0,0.249184310436,-0.0187500007451
142549000000,-0.713461101055,0.245598852634,-0.0187500007451
142549000000,1.0,0.207612529397,-0.0187500007451
142549000000,1.0,0.169608280063,-0.0187500007451
142549000000,1.0,0.131562948227,-0.0187500007451
142593000000,1.0,0.0937577933073,-0.0187500007451
142593000000,-1.0,0.131139442325,-0.0187500007451
142593000000,-1.0,0.169091850519,-0.0187500007451
142593000000,-1.0,0.207709282637,-0.0187500007451
142593000000,-1.0,0.246359318495,-0.0187500007451
142617000000,-0.0587475821376,0.230142205954,-0.0187500007451
142617000000,1.0,0.19240359962,-0.0187500007451
142621000000,-0.144150942564,0.180165573955,-0.0187500007451
142631000000,-0.599383115768,0.177274823189,-0.0187500007451
142672000000,0.378766477108,0.15554317832,-0.0187500007451
142672000000,0.423060655594,0.133889317513,-0.0187500007451
142673000000,0.53305119276,0.111037276685,-0.0187500007451
142673000000,0.580167889595,0.0882585197687,-0.0187500007451
142716000000,-1.0,0.097614698112,-0.0187500007451
142716000000,-1.0,0.11949172616,-0.0187500007451
142716000000,-1.0,0.141534656286,-0.0187500007451
142716000000,-1.0,0.163653746247,-0.0187500007451
142760000000,-0.802437841892,0.165365874767,-0.0187500007451
142760000000,1.0,0.12736722827,-0.0187500007451
142760000000,1.0,0.0892964750528,-0.0187500007451
142760000000,1.0,0.051200363785,-0.0187500007451
142806000000,1.0,0.0131392860785,-0.0187500007451
142806000000,-1.0,0.0440445840359,-0.0187500007451
142806000000,-1.0,0.081965431571,-0.0187500007451
142806000000,-1.0,0.120455607772,-0.0187500007451
142806000000,-1.0,0.159094020724,-0.0187500007451
142825000000,-0.673371493816,0.158465355635,-0.0187500007451
142825000000,1.0,0.1217995435,-0.0187500007451
142831000000,-0.628427922726,0.121905937791,-0.0187500007451
142841000000,0.345000207424,0.103134952486,-0.0187500007451
142885000000,-1.0,0.114231646061,-0.0187500007451
142885000000,-1.0,0.127319023013,-0.0187500007451
142885000000,-1.0,0.1404183954,-0.0187500007451
142885000000,-1.0,0.152835011482,-0.0187500007451
142929000000,0.0307601187378,0.138786807656,-0.0187500007451
142929000000,1.0,0.101101927459,-0.0187500007451
142929000000,1.0,0.0630577728152,-0.0187500007451
142929000000,1.0,0.0249373465776,-0.0187500007451
142972000000,1.0,-0.00382458302192,-0.0187500007451
142972000000,-1.0,0.033337123692,-0.0187500007451
142972000000,-1.0,0.0714695826173,-0.0187500007451
142972000000,-1.0,0.108918525279,-0.0187500007451
142972000000,-1.0,0.147558301687,-0.0187500007451
143007000000,0.159012675285,0.131222203374,-0.0187500007451
143007000000,1.0,0.0934959426522,-0.0187500007451
143007000000,1.0,0.055440004915,-0.0187500007451
143011000000,0.257788300514,0.041172914207,-0.0187500007451
143021000000,-1.0,0.0545836426318,-0.0187500007451
143062000000,1.0,0.0198530964553,-0.0187500007451
143062000000,1.0,-0.0166580975056,-0.0187500007451
143062000000,1.0,-0.0560192763805,-0.0187500007451
143062000000,1.0,-0.0928484946489,-0.0187500007451
143106000000,-1.0,-0.070641823113,-0.0187500007451
143106000000,-1.0,-0.0328508652747,-0.0187500007451
143106000000,-1.0,0.00431838352233,-0.0187500007451
143106000000,-1.0,0.0429041199386,-0.0187500007451
143150000000,-0.79822987318,0.0496463403106,-0.0187500007451
143150000000,1.0,0.0118483714759,-0.0187500007451
143150000000,1.0,-0.026765614748,-0.0187500007451
143150000000,1.0,-0.0642176344991,-0.0187500007451
143194000000,1.0,-0.102281101048,-0.0187500007451
143194000000,-1.0,-0.0635839402676,-0.0187500007451
143194000000,-1.0,-0.0256233289838,-0.0187500007451
143194000000,-1.0,0.0129320137203,-0.0187500007451
143194000000,-1.0,0.0498321279883,-0.0187500007451
143220000000,-0.0525112561882,0.041819408536,-0.0187500007451
143220000000,1.0,0.00429293978959,-0.0187500007451
143221000000,1.0,-0.0319491960108,-0.0187500007451
143231000000,-1.0,0.0036574290134,-0.0187500007451
143272000000,1.0,-0.0263482760638,-0.0187500007451
143272000000,1.0,-0.0641895309091,-0.0187500007451
143272000000,1.0,-0.10230923444,-0.0187500007451
143272000000,1.0,-0.14040826261,-0.0187500007451
143316000000,-1.0,-0.114644289017,-0.0187500007451
143316000000,-1.0,-0.0771536901593,-0.0187500007451
143316000000,-1.0,-0.0405868440866,-0.0187500007451
143316000000,-1.0,-0.00330479210243,-0.0187500007451
143360000000,-0.767033517361,0.00484852679074,-0.0187500007451
143360000000,1.0,-0.0337877050042,-0.0187500007451
143360000000,1.0,-0.0718038976192,-0.0187500007451
143360000000,1.0,-0.109933257103,-0.0187500007451
143406000000,1.0,-0.146729230881,-0.0187500007451
143406000000,-1.0,-0.108651205897,-0.0187500007451
143406000000,-1.0,-0.0706583037972,-0.0187500007451
143406000000,-1.0,-0.0338979288936,-0.0187500007451
143406000000,-1.0,0.00474516535178,-0.0187500007451
143431000000,-0.761009275913,0.0124469092116,-0.0187500007451
143431000000,1.0,-0.0261710118502,-0.0187500007451
143431000000,1.0,-0.0641832351685,-0.0187500007451
143441000000,-1.0,-0.030973372981,-0.0187500007451
143451000000,1.0,-0.0645382553339,-0.0187500007451
143491000000,-1.0,-0.0322512425482,-0.0187500007451
143491000000,-1.0,0.00569795491174,-0.0187500007451
143491000000,-1.0,0.0439872033894,-0.0187500007451
143491000000,-1.0,0.0823209360242,-0.0187500007451
143535000000,1.0,0.0497093386948,-0.0187500007451
143535000000,1.0,0.0119571425021,-0.0187500007451
143535000000,1.0,-0.0261252373457,-0.0187500007451
143535000000,1.0,-0.0642502009869,-0.0187500007451
143579000000,-0.366381913424,-0.061209782958,-0.0187500007451
143579000000,-1.0,-0.0240048859268,-0.0187500007451
143579000000,-1.0,0.0143937449902,-0.0187500007451
143579000000,-1.0,0.0517561286688,-0.0187500007451
143606000000,-1.0,0.081597559154,-0.0187500007451
143606000000,1.0,0.0422086678445,-0.0187500007451
143606000000,1.0,0.00369202462025,-0.0187500007451
143611000000,-0.15934984386,-0.000236126346863,-0.0187500007451
143621000000,-0.1664160043,-0.00385759864002,-0.0187500007451
143663000000,-0.0218895990402,-0.0101238386706,-0.0187500007451
143663000000,-0.00651526032016,-0.0164165832102,-0.0187500007451
143663000000,0.00860071089119,-0.0227294471115,-0.0187500007451
143663000000,0.0251389965415,-0.0290888976306,-0.0187500007451
143707000000,-0.294262647629,-0.02898125723,-0.0187500007451
143707000000,-0.481636762619,-0.0252460967749,-0.0187500007451
143707000000,-0.493999779224,-0.0214330889285,-0.0187500007451
143707000000,-0.50069630146,-0.0176555793732,-0.0187500007451
143751000000,-0.1899407655,-0.0200652480125,-0.0187500007451
143751000000,0.657589197159,-0.0387977771461,-0.0187500007451
143751000000,0.712438523769,-0.0577801689506,-0.0187500007451
143751000000,0.75724029541,-0.0768061503768,-0.0187500007451
143795000000,0.803001403809,-0.0958917364478,-0.0187500007451
143795000000,-1.0,-0.074922002852,-0.0187500007451
143795000000,-1.0,-0.0438288226724,-0.0187500007451
143795000000,-1.0,-0.0173309966922,-0.0187500007451
143795000000,-1.0,0.0138872535899,-0.0187500007451
143814000000,-0.0179632063955,0.00678477622569,-0.0187500007451
143814000000,1.0,-0.0308007672429,-0.0187500007451
143821000000,-0.446055948734,-0.0276677496731,-0.0187500007451
143831000000,0.422475367785,-0.0415048003197,-0.0187500007451
143874000000,-0.992023408413,-0.0273240096867,-0.0187500007451
143874000000,-1.0,-0.0113620888442,-0.0187500007451
143874000000,-1.0,0.00473257759586,-0.0187500007451
143874000000,-1.0,0.0208752118051,-0.0187500007451
143918000000,0.562607765198,0.00221500336193,-0.0187500007451
143918000000,1.0,-0.0356888771057,-0.0187500007451
143918000000,1.0,-0.0737710446119,-0.0187500007451
143918000000,1.0,-0.111801117659,-0.0187500007451
143966000000,0.939522027969,-0.132006779313,-0.0187500007451
143966000000,-1.0,-0.0943613424897,-0.0187500007451
143966000000,-1.0,-0.0562337115407,-0.0187500007451
143966000000,-1.0,-0.0211179833859,-0.0187500007451
143966000000,-1.0,0.0176468472928,-0.0187500007451
144007000000,-0.770662367344,0.0249812304974,-0.0187500007451
144007000000,1.0,-0.01286706049,-0.0187500007451
144007000000,1.0,-0.0509196966887,-0.0187500007451
144007000000,1.0,-0.0889682322741,-0.0187500007451
144011000000,0.567508339882,-0.102944791317,-0.0187500007451
144021000000,-1.0,-0.0786749944091,-0.0187500007451
144062000000,1.0,-0.113226763904,-0.0187500007451
144062000000,1.0,-0.151138737798,-0.0187500007451
144062000000,1.0,-0.189172714949,-0.0187500007451
144063000000,1.0,-0.227232724428,-0.0187500007451
144107000000,-0.779196977615,-0.209082007408,-0.0187500007451
144107000000,-1.0,-0.171907737851,-0.0187500007451
144107000000,-1.0,-0.133435457945,-0.0187500007451
144107000000,-1.0,-0.0952945649624,-0.0187500007451
144151000000,-0.943958163261,-0.0796539261937,-0.0187500007451
144151000000,1.0,-0.120750889182,-0.0187500007451
144151000000,1.0,-0.158749967813,-0.0187500007451
144151000000,1.0,-0.196798145771,-0.0187500007451
144195000000,1.0,-0.234838709235,-0.0187500007451
144195000000,-1.0,-0.201588213444,-0.0187500007451
144195000000,-1.0,-0.164025485516,-0.0187500007451
144195000000,-1.0,-0.127044662833,-0.0187500007451
144195000000,-1.0,-0.0886557623744,-0.0187500007451
144218000000,-0.0630939751863,-0.090333096683,-0.0187500007451
144218000000,1.0,-0.128404006362,-0.0187500007451
144221000000,1.0,-0.15716445446,-0.0187500007451
144231000000,-1.0,-0.120164215565,-0.0187500007451
144275000000,1.0,-0.152078568935,-0.0187500007451
144275000000,1.0,-0.189859673381,-0.0187500007451
144275000000,1.0,-0.227898493409,-0.0187500007451
144275000000,1.0,-0.265968322754,-0.0187500007451
144318000000,0.180595546961,-0.264635175467,-0.0187500007451
144318000000,-1.0,-0.227115362883,-0.0187500007451
144318000000,-1.0,-0.188912898302,-0.0187500007451
144318000000,-1.0,-0.150564178824,-0.0187500007451
144362000000,-1.0,-0.128668829799,-0.0187500007451
144362000000,1.0,-0.167092248797,-0.0187500007451
144362000000,1.0,-0.205043628812,-0.0187500007451
144362000000,1.0,-0.243136972189,-0.0187500007451
144362000000,1.0,-0.281207591295,-0.0187500007451
144406000000,-1.0,-0.255471885204,-0.0187500007451
144406000000,-1.0,-0.21815392375,-0.0187500007451
144406000000,-1.0,-0.18138037622,-0.0187500007451
144406000000,-1.0,-0.142938673496,-0.0187500007451
144411000000,-0.335131943226,-0.136858657002,-0.0187500007451
144421000000,0.687147855759,-0.150852650404,-0.0187500007451
144463000000,-1.0,-0.127067357302,-0.0187500007451
144463000000,-1.0,-0.101060442626,-0.0187500007451
144464000000,-1.0,-0.074877589941,-0.0187500007451
144464000000,-1.0,-0.048691328615,-0.0187500007451
144507000000,0.546643018723,-0.0637715086341,-0.0187500007451
144507000000,1.0,-0.101560465991,-0.0187500007451
144507000000,1.0,-0.139572963119,-0.0187500007451
144507000000,1.0,-0.177637204528,-0.0187500007451
144551000000,1.0,-0.197893410921,-0.0187500007451
144551000000,-1.0,-0.162041798234,-0.0187500007451
144551000000,-1.0,-0.123931109905,-0.0187500007451
144551000000,-1.0,-0.0853034630418,-0.0187500007451
144551000000,-1.0,-0.0468116030097,-0.0187500007451
144595000000,1.0,-0.071358256042,-0.0187500007451
144595000000,1.0,-0.109151534736,-0.0187500007451
144595000000,1.0,-0.147184923291,-0.0187500007451
144595000000,1.0,-0.185252934694,-0.0187500007451
144601000000,-0.0802000910044,-0.182210236788,-0.0187500007451
144611000000,0.140045449138,-0.18356256187,-0.0187500007451
144652000000,-0.178465291858,-0.178676664829,-0.0187500007451
144652000000,-0.213803470135,-0.173311963677,-0.0187500007451
144652000000,-0.224371939898,-0.16796952486,-0.0187500007451
144652000000,-0.233649745584,-0.162673592567,-0.0187500007451
144696000000,0.370992422104,-0.169321775436,-0.0187500007451
144696000000,0.497832715511,-0.178134649992,-0.0187500007451
144696000000,0.520363032818,-0.18699619174,-0.0187500007451
144696000000,0.543322503567,-0.195912286639,-0.0187500007451
144740000000,0.102585852146,-0.195892557502,-0.0187500007451
144740000000,-0.965047776699,-0.175173640251,-0.0187500007451
144740000000,-1.0,-0.154494211078,-0.0187500007451
144740000000,-1.0,-0.133798673749,-0.0187500007451
144784000000,-1.0,-0.113152645528,-0.0187500007451
144784000000,1.0,-0.146733939648,-0.0187500007451
144784000000,1.0,-0.184532210231,-0.0187500007451
144784000000,1.0,-0.22256731987,-0.0187500007451
144784000000,1.0,-0.260005921125,-0.0187500007451
144806000000,0.196532964706,-0.258975744247,-0.0187500007451
144806000000,-1.0,-0.221519425511,-0.0187500007451
144811000000,-0.19705119729,-0.214513882995,-0.0187500007451
144821000000,0.657984852791,-0.224378049374,-0.0187500007451
144862000000,-1.0,-0.201331973076,-0.0187500007451
144862000000,-1.0,-0.176431626081,-0.0187500007451
144862000000,-1.0,-0.151352703571,-0.0187500007451
144862000000,-1.0,-0.126256018877,-0.0187500007451
144905000000,1.0,-0.154282584786,-0.0187500007451
144905000000,1.0,-0.192159116268,-0.0187500007451
144905000000,1.0,-0.228953912854,-0.0187500007451
144905000000,1.0,-0.268319129944,-0.0187500007451
144949000000,0.197539746761,-0.266868531704,-0.0187500007451
144949000000,-1.0,-0.229355081916,-0.0187500007451
144949000000,-1.0,-0.191144272685,-0.0187500007451
144949000000,-1.0,-0.152688264847,-0.0187500007451
144992000000,-1.0,-0.122293494642,-0.0187500007451
144992000000,1.0,-0.159919276834,-0.0187500007451
144992000000,1.0,-0.199211493134,-0.0187500007451
144992000000,1.0,-0.235960111022,-0.0187500007451
144992000000,1.0,-0.27468919754,-0.0187500007451
145017000000,-0.528556883335,-0.258828401566,-0.0187500007451
145017000000,-1.0,-0.221194267273,-0.0187500007451
145021000000,-0.985197901726,-0.198786914349,-0.0187500007451
145032000000,1.0,-0.236244007945,-0.0187500007451
145073000000,-1.0,-0.204526156187,-0.0187500007451
145073000000,-1.0,-0.167317673564,-0.0187500007451
145073000000,-1.0,-0.128780812025,-0.0187500007451
145073000000,-1.0,-0.0901337787509,-0.0187500007451
145117000000,0.771785140038,-0.107433356345,-0.0187500007451
145117000000,1.0,-0.145337417722,-0.0187500007451
145117000000,1.0,-0.182111650705,-0.0187500007451
145117000000,1.0,-0.221446603537,-0.0187500007451
145161000000,0.902296423912,-0.235559001565,-0.0187500007451
145161000000,-1.0,-0.197879344225,-0.0187500007451
145161000000,-1.0,-0.15963858366,-0.0187500007451
145161000000,-1.0,-0.121066108346,-0.0187500007451
145161000000,-1.0,-0.0844200178981,-0.0187500007451
145207000000,1.0,-0.114963799715,-0.0187500007451
145207000000,1.0,-0.152839913964,-0.0187500007451
145207000000,1.0,-0.190990716219,-0.0187500007451
145207000000,1.0,-0.227741926908,-0.0187500007451
145211000000,0.987291455269,-0.243181079626,-0.0187500007451
145221000000,-1.0,-0.205378651619,-0.0187500007451
145264000000,1.0,-0.236041173339,-0.0187500007451
145264000000,1.0,-0.275211274624,-0.0187500007451
145264000000,1.0,-0.31194844842,-0.0187500007451
145264000000,1.0,-0.351394057274,-0.0187500007451
145308000000,-0.0154616134241,-0.34197896719,-0.0187500007451
145308000000,-1.0,-0.304356664419,-0.0187500007451
145308000000,-1.0,-0.266154795885,-0.0187500007451
145308000000,-1.0,-0.227789849043,-0.0187500007451
145352000000,-0.909721076488,-0.206364497542,-0.0187500007451
145352000000,1.0,-0.244772046804,-0.0187500007451
145352000000,1.0,-0.282734423876,-0.0187500007451
145352000000,1.0,-0.320835292339,-0.0187500007451
145352000000,1.0,-0.358920246363,-0.0187500007451
145395000000,-0.836045563221,-0.333187282085,-0.0187500007451
145395000000,-1.0,-0.295704811811,-0.0187500007451
145395000000,-1.0,-0.258795827627,-0.0187500007451
145395000000,-1.0,-0.220345541835,-0.0187500007451
145401000000,0.275431931019,-0.222129464149,-0.0187500007451
145411000000,-0.216264083982,-0.214298248291,-0.0187500007451
145454000000,0.5419049263,-0.221495017409,-0.0187500007451
145454000000,0.610414028168,-0.229700177908,-0.0187500007451
145454000000,0.630639672279,-0.237933829427,-0.0187500007451
145454000000,0.649041652679,-0.246159091592,-0.0187500007451
145498000000,-0.422401756048,-0.233251869678,-0.0187500007451
145498000000,-1.0,-0.208682373166,-0.0187500007451
145498000000,-1.0,-0.183987960219,-0.0187500007451
145498000000,-1.0,-0.160342335701,-0.0187500007451
145542000000,-0.518971383572,-0.149259984493,-0.0187500007451
145542000000,1.0,-0.185563877225,-0.0187500007451
145542000000,1.0,-0.225033149123,-0.0187500007451
145542000000,1.0,-0.261831134558,-0.0187500007451
145543000000,1.0,-0.30118894577,-0.0187500007451
145587000000,-0.538494169712,-0.283581614494,-0.0187500007451
145587000000,-1.0,-0.246321469545,-0.0187500007451
145587000000,-1.0,-0.207906916738,-0.0187500007451
145587000000,-1.0,-0.16983564198,-0.0187500007451
145591000000,-0.651210665703,-0.155711010098,-0.0187500007451
145601000000,1.0,-0.18278965354,-0.0187500007451
145625000000,-1.0,-0.151721537113,-0.0187500007451
145625000000,-1.0,-0.113783366978,-0.0187500007451
145668000000,-0.0523427128792,-0.113678604364,-0.0187500007451
145668000000,1.0,-0.15140427649,-0.0187500007451
145668000000,1.0,-0.18947096169,-0.0187500007451
145668000000,1.0,-0.226061627269,-0.0187500007451
145712000000,1.0,-0.247922480106,-0.0187500007451
145712000000,-1.0,-0.209664911032,-0.0187500007451
145712000000,-1.0,-0.171586349607,-0.0187500007451
145712000000,-1.0,-0.134928643703,-0.0187500007451
145712000000,-1.0,-0.0966357886791,-0.0187500007451
145756000000,1.0,-0.121187612414,-0.0187500007451
145756000000,1.0,-0.159038797021,-0.0187500007451
145756000000,1.0,-0.1958296597,-0.0187500007451
145756000000,1.0,-0.235271468759,-0.0187500007451
145761000000,0.461213260889,-0.239778488874,-0.0187500007451
145771000000,-0.679031133652,-0.221980988979,-0.0187500007451
145807000000,1.0,-0.244326576591,-0.0187500007451
145807000000,1.0,-0.270074248314,-0.0187500007451
145807000000,1.0,-0.295944571495,-0.0187500007451
145832000000,0.583017647266,-0.300138115883,-0.0187500007451
145832000000,-1.0,-0.263756245375,-0.0187500007451
145832000000,-1.0,-0.225621804595,-0.0187500007451
145875000000,1.0,-0.250052750111,-0.0187500007451
145875000000,1.0,-0.287828058004,-0.0187500007451
145875000000,1.0,-0.325885355473,-0.0187500007451
145875000000,1.0,-0.362695366144,-0.0187500007451
145919000000,0.514388501644,-0.362595140934,-0.0187500007451
145919000000,-1.0,-0.325106054544,-0.0187500007451
145919000000,-1.0,-0.286770343781,-0.0187500007451
145919000000,-1.0,-0.248379424214,-0.0187500007451
145963000000,-1.0,-0.21002946794,-0.0187500007451
145963000000,1.0,-0.249909177423,-0.0187500007451
145963000000,1.0,-0.28781452775,-0.0187500007451
145963000000,1.0,-0.325884401798,-0.0187500007451
145963000000,1.0,-0.363953530788,-0.0187500007451
146007000000,-0.0202892683446,-0.353345096111,-0.0187500007451
146007000000,-1.0,-0.316048026085,-0.0187500007451
146007000000,-1.0,-0.278836101294,-0.0187500007451
146007000000,-1.0,-0.242043405771,-0.0187500007451
146011000000,-0.597338557243,-0.225497812033,-0.0187500007451
146021000000,1.0,-0.250677734613,-0.0187500007451
146063000000,-1.0,-0.217989206314,-0.0187500007451
146063000000,-1.0,-0.180061414838,-0.0187500007451
146063000000,-1.0,-0.141736716032,-0.0187500007451
146063000000,-1.0,-0.103404834867,-0.0187500007451
146107000000,0.830330312252,-0.120508491993,-0.0187500007451
146107000000,1.0,-0.158280923963,-0.0187500007451
146107000000,1.0,-0.196314901114,-0.0187500007451
146107000000,1.0,-0.233760386705,-0.0187500007451
146150000000,0.912858605385,-0.246786445379,-0.0187500007451
146150000000,-1.0,-0.209159836173,-0.0187500007451
146150000000,-1.0,-0.172366842628,-0.0187500007451
146150000000,-1.0,-0.135198995471,-0.0187500007451
146194000000,-1.0,-0.0965593382716,-0.0187500007451
146194000000,1.0,-0.128103911877,-0.0187500007451
146194000000,1.0,-0.165886223316,-0.0187500007451
146195000000,1.0,-0.203930556774,-0.0187500007451
146195000000,1.0,-0.242012754083,-0.0187500007451
146218000000,0.106016129255,-0.238990291953,-0.0187500007451
146218000000,-1.0,-0.201684102416,-0.0187500007451
146221000000,-1.0,-0.172347232699,-0.0187500007451
146231000000,1.0,-0.211666837335,-0.0187500007451
146274000000,-1.0,-0.179725810885,-0.0187500007451
146274000000,-1.0,-0.142514154315,-0.0187500007451
146274000000,-1.0,-0.103992514312,-0.0187500007451
146274000000,-1.0,-0.0653207972646,-0.0187500007451
146318000000,-0.0334210135043,-0.0672176554799,-0.0187500007451
146318000000,1.0,-0.10374365747,-0.0187500007451
146318000000,1.0,-0.142577171326,-0.0187500007451
146318000000,1.0,-0.178036704659,-0.0187500007451
146362000000,1.0,-0.210163369775,-0.0187500007451
146362000000,-1.0,-0.172726094723,-0.0187500007451
146362000000,-1.0,-0.134690821171,-0.0187500007451
146362000000,-1.0,-0.096084959805,-0.0187500007451
146362000000,-1.0,-0.0583847463131,-0.0187500007451
146406000000,0.70958417654,-0.0749479308724,-0.0187500007451
146406000000,1.0,-0.111974030733,-0.0187500007451
146406000000,1.0,-0.148816227913,-0.0187500007451
146406000000,1.0,-0.188153892756,-0.0187500007451
146411000000,0.590867638588,-0.196770936251,-0.0187500007451
146420000000,-1.0,-0.170028179884,-0.0187500007451
146464000000,1.0,-0.202481597662,-0.0187500007451
146464000000,1.0,-0.24186745286,-0.0187500007451
146464000000,1.0,-0.278595328331,-0.0187500007451
146464000000,1.0,-0.317940175533,-0.0187500007451
146508000000,0.00671623880044,-0.309558331966,-0.0187500007451
146508000000,-1.0,-0.272189319134,-0.0187500007451
146508000000,-1.0,-0.233712419868,-0.0187500007451
146508000000,-1.0,-0.195571407676,-0.0187500007451
146551000000,-1.0,-0.171517983079,-0.0187500007451
146551000000,1.0,-0.210151404142,-0.0187500007451
146551000000,1.0,-0.248191028833,-0.0187500007451
146551000000,1.0,-0.286924630404,-0.0187500007451
146551000000,1.0,-0.324286967516,-0.0187500007451
146596000000,-0.627696692944,-0.30325782299,-0.0187500007451
146596000000,-1.0,-0.265524148941,-0.0187500007451
146596000000,-1.0,-0.226998761296,-0.0187500007451
146596000000,-1.0,-0.188316583633,-0.0187500007451
146601000000,-0.184935510159,-0.1817343086,-0.0187500007451
146611000000,0.587996125221,-0.190413162112,-0.0187500007451
146653000000,-0.901337921619,-0.169842019677,-0.0187500007451
146653000000,-1.0,-0.14750598371,-0.0187500007451
146653000000,-1.0,-0.125085294247,-0.0187500007451
146653000000,-1.0,-0.102727413177,-0.0187500007451
146702000000,0.812895834446,-0.119169212878,-0.0187500007451
146702000000,1.0,-0.15697850287,-0.0187500007451
146702000000,1.0,-0.194991245866,-0.0187500007451
146702000000,1.0,-0.233077451587,-0.0187500007451
146702000000,1.0,-0.269325256348,-0.0187500007451
146746000000,-0.726319253445,-0.248674735427,-0.0187500007451
146746000000,-1.0,-0.21078877151,-0.0187500007451
146746000000,-1.0,-0.172266542912,-0.0187500007451
146746000000,-1.0,-0.133660644293,-0.0187500007451
146751000000,-0.359310239553,-0.12598335743,-0.0187500007451
146761000000,0.830552756786,-0.141697973013,-0.0187500007451
146801000000,-1.0,-0.112772285938,-0.0187500007451
146801000000,-1.0,-0.0812882333994,-0.0187500007451
146801000000,-1.0,-0.0496999770403,-0.0187500007451
146801000000,-1.0,-0.0180875156075,-0.0187500007451
146823000000,-0.339435368776,-0.0157934632152,-0.0187500007451
146823000000,1.0,-0.0550966002047,-0.0187500007451
146831000000,-0.947374463081,-0.0394125282764,-0.0187500007451
146841000000,1.0,-0.068703725934,-0.0187500007451
146883000000,-1.0,-0.0364472121,-0.0187500007451
146883000000,-1.0,0.00150615419261,-0.0187500007451
146883000000,-1.0,0.0398013219237,-0.0187500007451
146883000000,-1.0,0.0781116187572,-0.0187500007451
146926000000,0.451186537743,0.0609065964818,-0.0187500007451
146926000000,1.0,0.0231642685831,-0.0187500007451
146926000000,1.0,-0.0148878032342,0.0187500007451
146926000000,1.0,-0.0529699400067,0.0375000014901
146970000000,1.0,-0.0652839392424,0.0562499985099
146970000000,-0.911042273045,-0.0278576761484,0.0750000029802
146970000000,-0.987623393536,0.0102465571836,0.09375
146970000000,-0.968465924263,0.0471429787576,0.11249999702
147007000000,-1.0,0.0840456709266,0.13124999404
147007000000,1.0,0.047064896673,0.15000000596
147007000000,1.0,0.0103720324114,0.16875000298
147007000000,1.0,-0.0264735035598,0.1875
147035000000,1.0,-0.037963964045,0.20624999702
147035000000,-0.630249202251,-0.000622035295237,0.22499999404
147035000000,-0.717711806297,0.0376168750226,0.24375000596
147041000000,1.0,0.0406600944698,0.262499988079
147051000000,-0.435077548027,0.0732722133398,0.28125
147091000000,1.0,0.0616828985512,0.300000011921
147091000000,1.0,0.0452285520732,0.31874999404
147091000000,1.0,0.0286826752126,0.33750000596
147091000000,1.0,0.0121568748727,0.356249988079
147135000000,0.0186185203493,0.0413276329637,0.375
147135000000,-0.453203201294,0.0792036354542,0.393750011921
147135000000,-0.505839288235,0.117281638086,0.41249999404
147135000000,-0.550795912743,0.155403330922,0.43125000596
147179000000,1.0,0.161649659276,0.449999988079
147179000000,1.0,0.140892371535,0.46875
147179000000,1.0,0.119845174253,0.487500011921
147179000000,1.0,0.0988611131907,0.506250023842
147207000000,1.0,0.0779438540339,0.524999976158
147207000000,-0.17481225729,0.115440540016,0.543749988079
147207000000,-0.244307979941,0.153486579657,0.5625
147211000000,0.395859777927,0.178302243352,0.581250011921
147221000000,0.952024698257,0.192089393735,0.600000023842
147267000000,-0.122914724052,0.226941809058,0.618749976158
147267000000,-0.224910005927,0.263086885214,0.637499988079
147267000000,-0.26663172245,0.299299657345,0.65625
147267000000,-0.307969391346,0.335569113493,0.675000011921
147315000000,0.451571673155,0.35636895895,0.693750023842
147315000000,1.0,0.344661414623,0.712499976158
147315000000,1.0,0.332931607962,0.731249988079
147315000000,1.0,0.321182280779,0.75
147315000000,1.0,0.309511810541,0.768750011921
147359000000,1.0,0.324659079313,0.787500023842
147359000000,-0.144631713629,0.362456768751,0.806249976158
147359000000,-0.19851192832,0.400488644838,0.824999988079
147359000000,-0.244132697582,0.438583761454,0.84375
147361000000,0.00364221190102,0.471051871777,0.862500011921
147371000000,1.0,0.472749948502,0.881250023842
147408000000,-0.139244183898,0.508161127567,0.899999976158
147408000000,-0.320305615664,0.5463732481,0.918749988079
147408000000,-0.35630980134,0.58445250988,0.9375
147435000000,0.164133280516,0.611618518829,0.956250011921
147435000000,1.0,0.59758657217,0.975000023842
147435000000,1.0,0.583416104317,0.993749976158
147479000000,0.958243489265,0.597715914249,1.01250004768
147479000000,-0.208524078131,0.634838879108,1.03125
147479000000,-0.305630803108,0.673061430454,1.04999995232
147479000000,-0.35201305151,0.7113519907,1.06875002384
147523000000,-0.0831940770149,0.743597447872,1.08749997616
147523000000,1.0,0.72938066721,1.10625004768
147523000000,1.0,0.716085672379,1.125
147523000000,1.0,0.702668786049,1.14374995232
147523000000,1.0,0.689221560955,1.16250002384
147567000000,0.615345954895,0.713027775288,1.18124997616
147567000000,-0.128329828382,0.751046061516,1.20000004768
147567000000,-0.186141312122,0.7893653512,1.21875
147567000000,-0.229410216212,0.827690005302,1.23749995232
147571000000,0.546269476414,0.850145637989,1.25625002384
147581000000,0.712034404278,0.869242250919,1.27499997616
147607000000,0.317576408386,0.895984172821,1.29375004768
147607000000,0.283086955547,0.923062324524,1.3125
147648000000,0.551949083805,0.944582045078,1.33124995232
147648000000,1.0,0.955360472202,1.35000002384
147648000000,1.0,0.966192424297,1.36874997616
147648000000,1.0,0.976990818977,1.38750004768
147696000000,0.852168917656,0.993663132191,1.40625
147696000000,-0.247003510594,1.03174543381,1.42499995232
147696000000,-0.299714535475,1.0700250864,1.44375002384
147696000000,-0.21381790936,1.1058062315,1.46249997616
147696000000,-0.393558770418,1.14434540272,1.48125004768
147739000000,0.686811327934,1.16109788418,1.5
147739000000,1.0,1.14628207684,1.51874995232
147739000000,1.0,1.13137900829,1.53750002384
147739000000,1.0,1.11639869213,1.55624997616
147741000000,1.0,1.10788857937,1.57500004768
147751000000,-0.150502562523,1.14659154415,1.59375
147792000000,1.0,1.14358198643,1.61249995232
147792000000,1.0,1.13802611828,1.63125002384
147792000000,1.0,1.13228821754,1.64999997616
147792000000,1.0,1.12650060654,1.66875004768
147816000000,0.574402689934,1.15450143814,1.6875
147817000000,0.0321605019271,1.19263041019,1.70624995232
147821000000,0.46553170681,1.22153747082,1.72500002384
147831000000,1.0,1.23650324345,1.74374997616
147872000000,0.121360532939,1.27184140682,1.76250004768
147873000000,-0.0700361430645,1.3101875782,1.78125
147873000000,-0.12803581357,1.34882497787,1.79999995232
147873000000,-0.170173898339,1.38743281364,1.81875002384
147916000000,1.0,1.39430451393,1.83749997616
147916000000,1.0,1.3879686594,1.85625004768
147916000000,1.0,1.38153374195,1.875
147916000000,1.0,1.37506949902,1.89374995232
147960000000,1.0,1.38162863255,1.91250002384
147960000000,0.0372215285897,1.41977787018,1.93124997616
147960000000,-0.00785688497126,1.45797789097,1.95000004768
147960000000,-0.0617325492203,1.49639630318,1.96875
148004000000,-0.102762915194,1.53477394581,1.98749995232
148004000000,1.0,1.53198111057,2.00624990463
148004000000,1.0,1.52965402603,2.02500009537
148004000000,1.0,1.52723145485,2.04375004768
148004000000,1.0,1.52491259575,2.0625
148024000000,0.905919015408,1.54665839672,2.08124995232
148024000000,0.0667867511511,1.58455824852,2.09999990463
148031000000,1.0,1.6014367342,2.11875009537
148041000000,0.27350667119,1.63461768627,2.13750004768
148088000000,1.0,1.64966928959,2.15625
148088000000,1.0,1.66011095047,2.17499995232
148088000000,1.0,1.67049252987,2.19374990463
148088000000,1.0,1.68092823029,2.21250009537
148132000000,1.0,1.69777917862,2.23125004768
148132000000,0.229480609298,1.73262691498,2.25
148132000000,0.0146608911455,1.77095890045,2.26874995232
148132000000,-0.042205452919,1.80956172943,2.28749990463
148132000000,-0.0883000195026,1.84821414948,2.30625009537
148176000000,1.0,1.85350084305,2.32500004768
148176000000,1.0,1.85018777847,2.34375
148176000000,1.0,1.8467720747,2.36249995232
148176000000,1.0,1.84342086315,2.38124990463
148181000000,1.0,1.85643100739,2.40000009537
148191000000,0.0996347665787,1.89439678192,2.41875004768
148208000000,1.0,1.90193748474,2.4375
148256000000,1.0,1.91288423538,2.45624995232
148256000000,0.190139591694,1.94914495945,2.47499990463
148256000000,0.00967809930444,1.98816299438,2.49375009537
148256000000,-0.0101528177038,2.02670454979,2.51250004768
148256000000,-0.0349017009139,2.06488490105,2.53125
148300000000,0.754448056221,2.08693957329,2.54999995232
148300000000,1.0,2.08575940132,2.56874990463
148300000000,1.0,2.08442878723,2.58750009537
148300000000,1.0,2.08302760124,2.60625004768
148301000000,1.0,2.08164954185,2.625
148311000000,0.134950995445,2.11914205551,2.64374995232
148355000000,1.0,2.12828493118,2.66249990463
148355000000,1.0,2.13347196579,2.68125009537
148355000000,1.0,2.13854885101,2.70000004768
148355000000,1.0,2.14368438721,2.71875
148399000000,1.0,2.16476273537,2.73749995232
148399000000,0.179374083877,2.2027888298,2.75624990463
148399000000,0.12714625895,2.24101114273,2.77500009537
148399000000,0.0778748467565,2.27936315536,2.79375004768
148425000000,0.200533896685,2.31450605392,2.8125
148425000000,1.0,2.31683731079,2.83124995232
148425000000,1.0,2.31979584694,2.84999990463
148431000000,1.0,2.33957219124,2.86875009537
148441000000,0.0841860622168,2.37768673897,2.88750004768
148481000000,1.0,2.38493442535,2.90625
148481000000,1.0,2.38821411133,2.92499995232
148481000000,1.0,2.39133071899,2.94374990463
148481000000,1.0,2.39449214935,2.96250009537
148525000000,0.385787457228,2.42854237556,2.98125004768
148525000000,0.135646045208,2.46679735184,3.0
148525000000,0.0790550261736,2.50532245636,3.01874995232
148525000000,0.120153412223,2.54221177101,3.03749990463
148573000000,0.839380860329,2.56439161301,3.05625009537
148573000000,1.0,2.56913399696,3.07500004768
148573000000,1.0,2.57370829582,3.09375
148573000000,1.0,2.5782020092,3.11249995232
148573000000,1.0,2.58271694183,3.13124990463
148606000000,0.634975731373,2.61126232147,3.15000009537
148606000000,0.121188506484,2.64936089516,3.16875004768
148606000000,0.0701863691211,2.68762755394,3.1875
148611000000,0.83183991909,2.71030282974,3.20624995232
148621000000,0.436586767435,2.74048686028,3.22499990463
148665000000,1.0,2.7579843998,3.24375009537
148665000000,1.0,2.77461957932,3.26250004768
148665000000,1.0,2.79116034508,3.28125
148665000000,1.0,2.80771660805,3.29999995232
148713000000,0.539637446404,2.83583259583,3.31874990463
148713000000,0.0110606346279,2.87380504608,3.33750009537
148713000000,-0.0328748747706,2.91181206703,3.35625004768
148713000000,-0.0742544606328,2.94980192184,3.375
148713000000,-0.11916179955,2.98784303665,3.39374995232
148756000000,1.0,2.99449920654,3.41249990463
148757000000,1.0,2.99008822441,3.43125009537
148757000000,1.0,2.98546123505,3.45000004768
148757000000,1.0,2.9808511734,3.46875
148761000000,1.0,2.99071073532,3.48749995232
148771000000,0.0529050379992,3.02862024307,3.50624990463
148808000000,1.0,3.03288793564,3.52500009537
148808000000,1.0,3.03492236137,3.54375004768
148808000000,1.0,3.03687572479,3.5625
148834000000,1.0,3.04624414444,3.58124995232
148834000000,0.102993622422,3.08493232727,3.59999990463
148834000000,0.0868522450328,3.12308716774,3.61875009537
148878000000,1.0,3.13918924332,3.63750004768
148878000000,1.0,3.14261865616,3.65625
148878000000,1.0,3.14593935013,3.67499995232
148878000000,1.0,3.14918923378,3.69374990463
148922000000,1.0,3.15755343437,3.71250009537
148922000000,0.153694167733,3.19625592232,3.73125004768
148922000000,0.126118436456,3.23464679718,3.75
148922000000,0.072830952704,3.27323722839,3.76874995232
148922000000,0.0326397009194,3.31176400185,3.78749990463
148966000000,1.0,3.31981039047,3.80625009537
148966000000,1.0,3.321154356,3.82500004768
148966000000,1.0,3.32238817215,3.84375
148966000000,1.0,3.32358193398,3.86249995232
148971000000,1.0,3.3389210701,3.88124990463
148981000000,0.165706247091,3.37701034546,3.90000009537
149007000000,1.0,3.38706922531,3.91875004768
149007000000,1.0,3.39343500137,3.9375
149042000000,1.0,3.41034507751,3.95624995232
149042000000,0.189753428102,3.44820094109,3.97499990463
149042000000,0.139222159982,3.48622655869,3.99375009537
149042000000,0.0939087048173,3.5243127346,4.01249980927
149086000000,1.0,3.53673124313,4.03125
149086000000,1.0,3.54034590721,4.05000019073
149086000000,1.0,3.54385519028,4.06874990463
149086000000,1.0,3.54741168022,4.08750009537
149130000000,1.0,3.56104969978,4.10624980927
149130000000,0.228161215782,3.59828019142,4.125
149130000000,0.131696671247,3.63659787178,4.14375019073
149131000000,0.0765526890755,3.67515397072,4.16249990463
149174000000,0.0308754686266,3.71375393867,4.18125009537
149174000000,1.0,3.71978640556,4.19999980927
149174000000,1.0,3.722697258,4.21875
149174000000,1.0,3.72551751137,4.23750019073
149174000000,1.0,3.72840261459,4.25624990463
149207000000,0.97273427248,3.75059342384,4.27500009537
149207000000,0.149697259068,3.78860664368,4.29374980927
149207000000,0.0871616974473,3.82701468468,4.3125
149211000000,0.53640627861,3.85588002205,4.33125019073
149221000000,1.0,3.87320971489,4.34999990463
149261000000,0.164554357529,3.90893983841,4.36875009537
149261000000,-0.00254240841605,3.94718885422,4.38749980927
149261000000,-0.0580633841455,3.98568415642,4.40625
149261000000,-0.106115490198,4.02426958084,4.42500019073
149305000000,1.0,4.02898263931,4.44374990463
149305000000,1.0,4.02497339249,4.46250009537
149305000000,1.0,4.0208067894,4.48124980927
149305000000,1.0,4.01669883728,4.5
149349000000,1.0,4.02919197083,4.51875019073
149349000000,0.0867136865854,4.06712961197,4.53749990463
149349000000,0.0341228209436,4.10527133942,4.55625009537
149349000000,-0.0154921840876,4.14354991913,4.57499980927
149393000000,0.134040892124,4.17809867859,4.59375
149393000000,1.0,4.17603445053,4.61250019073
149393000000,1.0,4.17469501495,4.63124990463
149393000000,1.0,4.17324829102,4.65000009537
149393000000,1.0,4.17185592651,4.66874980927
149419000000,0.682727992535,4.19869089127,4.6875
149419000000,0.0910362899303,4.23666143417,4.70625019073
149421000000,0.219459459186,4.27132606506,4.72499990463
149431000000,1.0,4.27823209763,4.74375009537
149471000000,0.192605733871,4.31327390671,4.76249980927
149471000000,-0.00132325047161,4.3513841629,4.78125
149471000000,-0.0520142838359,4.38965272903,4.80000019073
149471000000,-0.0944610089064,4.42791223526,4.81874990463
149515000000,1.0,4.42762994766,4.83750009537
149515000000,1.0,4.42411470413,4.85624980927
149515000000,1.0,4.42044019699,4.875
149515000000,1.0,4.41670942307,4.89375019073
149559000000,1.0,4.43544244766,4.91249990463
149559000000,0.0825133174658,4.47326087952,4.93125009537
149559000000,0.0297478996217,4.51129150391,4.94999980927
149559000000,-0.00933348760009,4.54925918579,4.96875
149603000000,0.193101271987,4.58248472214,4.98750019073
149603000000,1.0,4.58019018173,5.00624990463
149603000000,1.0,4.57867908478,5.02500009537
149603000000,1.0,4.57703733444,5.04374980927
149603000000,1.0,4.5753569603,5.0625
149625000000,0.642596483231,4.60288524628,5.08125019073
149625000000,0.0906637087464,4.64074802399,5.09999990463
149631000000,1.0,4.66016483307,5.11875009537
149641000000,0.154438704252,4.69596672058,5.13749980927
149684000000,1.0,4.70378446579,5.15625
149685000000,1.0,4.70964860916,5.17500019073
149685000000,1.0,4.71548652649,5.19374990463
149685000000,1.0,4.72128295898,5.21250009537
149728000000,0.894221305847,4.74424552917,5.23124980927
149728000000,0.119844354689,4.78205251694,5.25
149728000000,0.149660006166,4.81847190857,5.26875019073
149728000000,0.0111762946472,4.85682535172,5.28749990463
149772000000,-0.0244111120701,4.89503383636,5.30625009537
149772000000,1.0,4.90161895752,5.32499980927
149772000000,1.0,4.90100860596,5.34375
149772000000,1.0,4.90032863617,5.36250019073
149772000000,1.0,4.89960289001,5.38124990463
149807000000,0.482870876789,4.93027019501,5.40000009537
149807000000,0.0767196491361,4.9683098793,5.41874980927
149807000000,0.014416385442,5.00673675537,5.4375
149811000000,0.64176440239,5.03216600418,5.45625019073
149821000000,0.759003341198,5.05504846573,5.47499990463
149864000000,0.463369846344,5.08349704742,5.49375009537
149864000000,0.427695244551,5.11223125458,5.51249980927
149864000000,0.401818305254,5.1410484314,5.53125
149864000000,0.379599273205,5.16987371445,5.55000019073
149908000000,0.822920203209,5.18968296051,5.56874990463
149908000000,1.0,5.20405912399,5.58750009537
149908000000,1.0,5.21839666367,5.60624980927
149908000000,1.0,5.23278427124,5.625
149952000000,0.949855923653,5.25071334839,5.64375019073
149952000000,-0.0291350707412,5.28766775131,5.66249990463
149952000000,-0.137344390154,5.32594347,5.68125009537
149952000000,-0.192382618785,5.36445188522,5.69999980927
149952000000,-0.237006366253,5.40298032761,5.71875
149996000000,1.0,5.40283346176,5.73750019073
149996000000,1.0,5.39379119873,5.75624990463
149996000000,1.0,5.38463783264,5.77500009537
149996000000,1.0,5.37553739548,5.79374980927
150001000000,1.0,5.3823132515,5.8125
150011000000,0.0197976008058,5.42005062103,5.83125019073
150052000000,1.0,5.42264270782,5.84999990463
150052000000,1.0,5.42302322388,5.86875009537
150052000000,1.0,5.42328357697,5.88749980927
150052000000,1.0,5.42349863052,5.90625
150096000000,0.481459140778,5.45464849472,5.92500019073
150096000000,0.10466080904,5.49258089066,5.94374990463
150096000000,0.0466089956462,5.53082275391,5.96250009537
150096000000,0.0952615141869,5.5672917366,5.98124980927
150140000000,0.671115040779,5.59184551239,6.0
150140000000,1.0,5.59541559219,6.01875019073
150140000000,1.0,5.59895896912,6.03749990463
150140000000,1.0,5.60248327255,6.05625009537
150184000000,1.0,5.60597658157,6.07499980927
150184000000,0.206236675382,5.64200878143,6.09375
150184000000,0.0611434206367,5.6801199913,6.11250019073
150184000000,-0.00071397726424,5.71860599518,6.13124990463
150184000000,-0.0452666915953,5.7571144104,6.15000009537
150208000000,1.0,5.77134418488,6.16874980927
150209000000,1.0,5.76960515976,6.1875
150211000000,1.0,5.77259397507,6.20625019073
150221000000,0.0059264563024,5.81108093262,6.22499990463
150264000000,1.0,5.81217575073,6.24375009537
150264000000,1.0,5.81086778641,6.26249980927
150264000000,1.0,5.80946731567,6.28125
150264000000,1.0,5.80813503265,6.30000019073
150310000000,1.0,5.82795906067,6.31874990463
150310000000,0.179759636521,5.86565446854,6.33750009537
150310000000,0.128869876266,5.90353155136,6.35624980927
150310000000,0.0833191126585,5.94147825241,6.375
150356000000,0.0399138405919,5.97944927216,6.39375019073
150356000000,1.0,5.98469781876,6.41249990463
150357000000,1.0,5.98775577545,6.43125009537
150357000000,1.0,5.99074888229,6.44999980927
150357000000,1.0,5.99381399155,6.46875
150400000000,1.0,6.00759744644,6.48750019073
150400000000,0.228699803352,6.04401874542,6.50624990463
150400000000,0.0984509065747,6.08221483231,6.52500009537
150400000000,0.0426716729999,6.12066459656,6.54374980927
150401000000,0.0104217175394,6.15890026093,6.5625
150411000000,1.0,6.16171979904,6.58125019073
150457000000,0.320790886879,6.19381523132,6.59999990463
150457000000,-0.0148222111166,6.23185157776,6.61875009537
150457000000,-0.0766707584262,6.27026414871,6.63749980927
150457000000,-0.123874604702,6.30875205994,6.65625
150501000000,0.497055739164,6.33436107635,6.67500019073
150501000000,1.0,6.32945108414,6.69374990463
150501000000,1.0,6.32461738586,6.71250009537
150501000000,1.0,6.31977367401,6.73124980927
150545000000,1.0,6.31488990784,6.75
150545000000,0.36297544837,6.34696817398,6.76875019073
150545000000,0.0312676541507,6.38491296768,6.78749990463
150545000000,-0.0362510085106,6.42334842682,6.80625009537
150545000000,-0.0820745751262,6.46183204651,6.82499980927
150588000000,0.957163512707,6.47932958603,6.84375
150588000000,1.0,6.47614908218,6.86250019073
150588000000,1.0,6.4728770256,6.88124990463
150588000000,1.0,6.46895980835,6.90000009537
150591000000,1.0,6.47592449188,6.91874980927
150601000000,0.0866107344627,6.51382446289,6.9375
150623000000,1.0,6.51910638809,6.95625019073
150623000000,1.0,6.52233934402,6.97499990463
150667000000,0.816928088665,6.54655790329,6.99375009537
150667000000,0.103776738048,6.58437824249,7.01249980927
150667000000,0.0489094182849,6.62245035172,7.03125
150667000000,0.00188080989756,6.66061067581,7.05000019073
150711000000,0.419211417437,6.68985414505,7.06874990463
150711000000,1.0,6.68781995773,7.08750009537
150711000000,1.0,6.68595123291,7.10624980927
150711000000,1.0,6.68401908875,7.125
150711000000,1.0,6.68215990067,7.14375019073
150755000000,0.366717964411,6.71562862396,7.16249990463
150755000000,0.102452255785,6.75359725952,7.18125009537
150755000000,0.0876472964883,6.79103469849,7.19999980927
150755000000,-0.0260074976832,6.82987928391,7.21875
150761000000,1.0,6.8478808403,7.23750019073
150771000000,0.183058440685,6.88186216354,7.25624990463
150806000000,1.0,6.89211082458,7.27500009537
150806000000,1.0,6.89891576767,7.29374980927
150806000000,1.0,6.90568447113,7.3125
150836000000,0.942780077457,6.92574262619,7.33125019073
150836000000,0.0203292705119,6.96363830566,7.34999990463
150836000000,0.061947170645,6.99991083145,7.36875009537
150880000000,0.47111427784,7.02750587463,7.38749980927
150880000000,1.0,7.02959823608,7.40625
150880000000,1.0,7.0318646431,7.42500019073
150880000000,1.0,7.03404188156,7.44374990463
150924000000,1.0,7.03613233566,7.46250009537
150924000000,0.271851241589,7.07015609741,7.48124980927
150924000000,0.0644092038274,7.10755300522,7.5
150924000000,-0.0619291067123,7.14660406113,7.51875019073
150924000000,-0.0697639212012,7.1849398613,7.53749990463
150968000000,1.0,7.20108413696,7.55625009537
150968000000,1.0,7.19838953018,7.57499980927
150968000000,1.0,7.1955704689,7.59375
150968000000,1.0,7.19267559052,7.61250019073
150971000000,1.0,7.1991481781,7.63124990463
150981000000,0.262180149555,7.23373508453,7.65000009537
151006000000,1.0,7.24871253967,7.66874980927
151006000000,1.0,7.25859260559,7.6875
151046000000,1.0,7.27694606781,7.70625019073
151046000000,0.0713251233101,7.31517219543,7.72499990463
151046000000,0.0277177412063,7.35341358185,7.74375009537
151046000000,-0.0247919801623,7.39184141159,7.76249980927
151090000000,0.718116402626,7.41502952576,7.78125
151090000000,1.0,7.41386032104,7.80000019073
151090000000,1.0,7.41267204285,7.81874990463
151090000000,1.0,7.41150808334,7.83750009537
151134000000,1.0,7.41031932831,7.85624980927
151134000000,0.430657058954,7.44241762161,7.875
151135000000,0.102467186749,7.48031377792,7.89375019073
151135000000,0.0370949059725,7.51866149902,7.91249990463
151135000000,-0.0100863799453,7.55708789825,7.93125009537
151182000000,0.978154480457,7.57551956177,7.94999980927
151182000000,1.0,7.57387018204,7.96875
151182000000,1.0,7.57210445404,7.98750019073
151182000000,1.0,7.5703792572,8.00625038147
151182000000,1.0,7.56863117218,8.02499961853
151207000000,0.797817289829,7.5941991806,8.04374980927
151207000000,0.155527710915,7.63193702698,8.0625
151211000000,0.575504302979,7.66072654724,8.08125019073
151221000000,0.96744120121,7.68149900436,8.10000038147
151261000000,0.349208533764,7.71418190002,8.11874961853
151261000000,0.0323523022234,7.75241661072,8.13749980927
151261000000,0.164504006505,7.78725862503,8.15625
151261000000,-0.0600758604705,7.8257689476,8.17500019073
151309000000,1.0,7.83053016663,8.19375038147
151309000000,1.0,7.82808017731,8.21249961853
151310000000,1.0,7.82547044754,8.23124980927
151310000000,1.0,7.8229174614,8.25
151353000000,1.0,7.81975603104,8.26875019073
151353000000,0.052202668041,7.85964632034,8.28750038147
151353000000,0.118193082511,7.89735603333,8.30624961853
151353000000,0.0730088949203,7.93513393402,8.32499980927
151353000000,0.0669492483139,7.97221803665,8.34375
151397000000,1.0,7.98800039291,8.36250019073
151397000000,1.0,7.99051380157,8.38125038147
151397000000,1.0,7.9927854538,8.39999961853
151397000000,1.0,7.99503326416,8.41874980927
151401000000,1.0,8.00176239014,8.4375
151411000000,0.0964722707868,8.040350914,8.45625019073
151452000000,1.0,8.04900360107,8.47500038147
151452000000,1.0,8.05247116089,8.49374961853
151452000000,1.0,8.05586910248,8.51249980927
151452000000,1.0,8.05929851532,8.53125
151496000000,0.530535280704,8.09112453461,8.55000019073
151496000000,0.195106804371,8.12890148163,8.56875038147
151496000000,0.233793660998,8.16511917114,8.58749961853
151496000000,0.0963981002569,8.20325756073,8.60624980927
151540000000,0.773886620998,8.22743797302,8.625
151540000000,1.0,8.23090171814,8.64375019073
151540000000,1.0,8.23427009583,8.66250038147
151540000000,1.0,8.23765659332,8.68124961853
151588000000,1.0,8.24107074738,8.69999980927
151588000000,0.229383468628,8.27830886841,8.71875
151588000000,0.151536121964,8.31626987457,8.73750019073
151588000000,0.0929461941123,8.35454845428,8.75625038147
151588000000,0.0464017316699,8.39289665222,8.77499961853
151613000000,0.443961799145,8.42270278931,8.79374980927
151613000000,1.0,8.42396831512,8.8125
151614000000,1.0,8.42544174194,8.83125019073
151621000000,0.902201235294,8.4474363327,8.85000038147
151631000000,0.284697175026,8.48127365112,8.86874961853
151673000000,1.0,8.49633407593,8.88749980927
151673000000,1.0,8.50688648224,8.90625
151673000000,1.0,8.51739501953,8.92500019073
151673000000,1.0,8.52796173096,8.94375038147
151716000000,0.498107552528,8.55830860138,8.96249961853
151716000000,0.0940025895834,8.59599971771,8.98124980927
151716000000,0.0584841482341,8.63357162476,9.0
151716000000,0.00105631444603,8.67145347595,9.01875019073
151760000000,0.647279500961,8.69599246979,9.03750038147
151760000000,1.0,8.69391536713,9.05624961853
151760000000,1.0,8.69179439545,9.07499980927
151760000000,1.0,8.68966770172,9.09375
151804000000,1.0,8.6876077652,9.11250019073
151804000000,0.174049392343,8.7247543335,9.13125038147
151804000000,0.09718003124,8.76260757446,9.14999961853
151804000000,0.125659406185,8.79909420013,9.16874980927
151804000000,-0.00505605805665,8.83735847473,9.1875
151830000000,1.0,8.85225963593,9.20625019073
151830000000,1.0,8.85037517548,9.22500038147
151831000000,1.0,8.84764480591,9.24374961853
151841000000,-0.0185898151249,8.88737201691,9.26249980927
151886000000,1.0,8.88832378387,9.28125
151886000000,1.0,8.8869342804,9.30000019073
151886000000,1.0,8.88535785675,9.31875038147
151886000000,1.0,8.88376617432,9.33749961853
151929000000,1.0,8.89946365356,9.35624980927
151929000000,0.232181087136,8.93705368042,9.375
151929000000,0.184293016791,8.97477054596,9.39375019073
151930000000,0.144597694278,9.01244926453,9.41250038147
151977000000,0.290691167116,9.04648971558,9.43124961853
151977000000,1.0,9.05110359192,9.44999980927
151977000000,1.0,9.05633831024,9.46875
151977000000,1.0,9.06145858765,9.48750019073
151977000000,1.0,9.06655979156,9.50625038147
152007000000,1.0,9.07928276062,9.52499961853
152007000000,0.204250320792,9.11707019806,9.54374980927
152007000000,0.167265176773,9.15476417542,9.5625
152011000000,0.674631416798,9.18181705475,9.58125019073
152021000000,0.805633127689,9.20598506927,9.60000038147
152062000000,0.500013828278,9.23585605621,9.61874961853
152062000000,0.44528645277,9.2663192749,9.63749980927
152062000000,0.479940950871,9.2956161499,9.65625
152062000000,0.357130765915,9.32684898376,9.67500019073
152106000000,1.0,9.34278678894,9.69375038147
152106000000,1.0,9.35611343384,9.71249961853
152106000000,1.0,9.36933898926,9.73124980927
152106000000,1.0,9.3825006485,9.75
152150000000,0.755962908268,9.40636539459,9.76875019073
152150000000,0.0363353565335,9.44396972656,9.78750038147
152150000000,-0.0108260847628,9.4816827774,9.80624961853
152150000000,-0.0505906492472,9.51935577393,9.82499980927
152193000000,-0.0899072736502,9.55698108673,9.84375
152193000000,1.0,9.55321502686,9.86250019073
152193000000,1.0,9.551030159,9.88125038147
152193000000,1.0,9.54871463776,9.89999961853
152193000000,1.0,9.54636001587,9.91874980927
152215000000,0.688048958778,9.57186126709,9.9375
152215000000,0.0485075116158,9.6094789505,9.95625019073
152221000000,0.739848971367,9.63289070129,9.97500038147
152231000000,0.580332398415,9.65920448303,9.99374961853
152271000000,0.788048148155,9.68117618561,10.0124998093
152271000000,0.796611011028,9.70285415649,10.03125
152271000000,0.788654208183,9.72457122803,10.0500001907
152271000000,0.783064424992,9.74627971649,10.0687503815
152315000000,0.405568033457,9.77518844604,10.0874996185
152315000000,0.361226737499,9.80452728271,10.1062498093
152315000000,0.334796875715,9.83393001556,10.125
152315000000,0.309975385666,9.86336231232,10.1437501907
152359000000,0.792294502258,9.88299274445,10.1625003815
152359000000,1.0,9.89440250397,10.1812496185
152359000000,1.0,9.90576648712,10.1999998093
152359000000,1.0,9.9171705246,10.21875
152402000000,1.0,9.93159770966,10.2375001907
152403000000,-0.0368549451232,9.96845912933,10.2562503815
152403000000,-0.122262537479,10.0062007904,10.2749996185
152403000000,-0.174052968621,10.0441322327,10.2937498093
152403000000,-0.218677535653,10.0821056366,10.3125
152426000000,1.0,10.0859594345,10.3312501907
152426000000,1.0,10.0773220062,10.3500003815
152431000000,1.0,10.0882034302,10.3687496185
152441000000,-0.126779481769,10.1257743835,10.3874998093
152483000000,1.0,10.1238059998,10.40625
152483000000,1.0,10.1186313629,10.4250001907
152483000000,1.0,10.1133089066,10.4437503815
152483000000,1.0,10.108042717,10.4624996185
152527000000,0.701684892178,10.1328172684,10.4812498093
152527000000,0.0307720415294,10.1703472137,10.5
152527000000,-0.0254004597664,10.2081632614,10.5187501907
152527000000,-0.0719655156136,10.2460660934,10.5375003815
152575000000,0.551128983498,10.271071434,10.5562496185
152575000000,1.0,10.267947197,10.5749998093
152575000000,1.0,10.264752388,10.59375
152575000000,1.0,10.2614994049,10.6125001907
152575000000,1.0,10.2583198547,10.6312503815
152607000000,1.0,10.2769985199,10.6499996185
152607000000,0.09381711483,10.3144788742,10.6687498093
152607000000,0.138371065259,10.3502960205,10.6875
152611000000,0.481583088636,10.3787326813,10.7062501907
152621000000,1.0,10.3949422836,10.7250003815
152662000000,0.0965704470873,10.4305553436,10.7437496185
152662000000,-0.0490242429078,10.4682703018,10.7624998093
152662000000,-0.0983949452639,10.5061302185,10.78125
152662000000,-0.142516642809,10.5440263748,10.8000001907
152710000000,1.0,10.5460414886,10.8187503815
152710000000,1.0,10.5402946472,10.8374996185
152710000000,1.0,10.5343503952,10.8562498093
152710000000,1.0,10.5284032822,10.875
152754000000,1.0,10.5225172043,10.8937501907
152754000000,0.233844861388,10.5573549271,10.9125003815
152754000000,0.0622642561793,10.594833374,10.9312496185
152754000000,0.0169457290322,10.6323900223,10.9499998093
152754000000,-0.0253847483546,10.669962883,10.96875
152798000000,1.0,10.6826725006,10.9875001907
152798000000,1.0,10.6813907623,11.0062503815
152798000000,1.0,10.6799001694,11.0249996185
152798000000,1.0,10.6783952713,11.0437498093
152801000000,1.0,10.6860580444,11.0625
152811000000,0.105753831565,10.7237138748,11.0812501907
152852000000,1.0,10.729388237,11.1000003815
152852000000,1.0,10.7329673767,11.1187496185
152852000000,1.0,10.7364788055,11.1374998093
152852000000,1.0,10.7400474548,11.15625
152895000000,0.505260646343,10.7717542648,11.1750001907
152895000000,0.175161391497,10.8093118668,11.1937503815
152895000000,0.133839145303,10.846868515,11.2124996185
152895000000,0.173815354705,10.8828477859,11.2312498093
152939000000,0.670885503292,10.908457756,11.25
152939000000,1.0,10.914639473,11.2687501907
152939000000,1.0,10.9207143784,11.2875003815
152939000000,1.0,10.9268035889,11.3062496185
152983000000,1.0,10.9359340668,11.3249998093
152983000000,0.0909846574068,10.9746141434,11.34375
152983000000,0.113397419453,11.012008667,11.3625001907
152983000000,0.159218847752,11.0477190018,11.3812503815
152983000000,0.00143905240111,11.0857639313,11.3999996185
153006000000,1.0,11.0954799652,11.4187498093
153006000000,1.0,11.0933427811,11.4375
153011000000,1.0,11.1078176498,11.4562501907
153021000000,0.0670359060168,11.1452856064,11.4750003815
153062000000,1.0,11.1500253677,11.4937496185
153062000000,1.0,11.1521635056,11.5124998093
153062000000,1.0,11.1541280746,11.53125
153062000000,1.0,11.1561012268,11.5500001907
153106000000,0.611823678017,11.1850471497,11.5687503815
153106000000,0.139964267612,11.2227106094,11.5874996185
153106000000,0.0816888660192,11.2606964111,11.6062498093
153106000000,0.0378597229719,11.2987098694,11.625
153149000000,0.761045992374,11.3218822479,11.6437501907
153149000000,1.0,11.3229455948,11.6625003815
153149000000,1.0,11.3238677979,11.6812496185
153149000000,1.0,11.3246955872,11.6999998093
153194000000,1.0,11.3255462646,11.71875
153194000000,0.243596062064,11.3617153168,11.7375001907
153194000000,0.124525636435,11.3994503021,11.7562503815
153194000000,0.0699622407556,11.4374322891,11.7749996185
153194000000,0.0270615722984,11.4754238129,11.7937498093
153213000000,1.0,11.4906682968,11.8125
153213000000,1.0,11.4913415909,11.8312501907
153221000000,0.586621522903,11.5186243057,11.8500003815
153231000000,0.781289279461,11.5417757034,11.8687496185
153273000000,0.4846098423,11.5704984665,11.8874998093
153273000000,0.439611017704,11.5996723175,11.90625
153273000000,0.41547831893,11.6288728714,11.9250001907
153273000000,0.395891338587,11.6580104828,11.9437503815
153317000000,0.93595457077,11.6762399673,11.9624996185
153317000000,1.0,11.6907663345,11.9812498093
153317000000,1.0,11.7052965164,12.0
153317000000,1.0,11.7198133469,12.0187501907
153361000000,0.789412200451,11.7414979935,12.0375003815
153361000000,0.0370473377407,11.7776489258,12.0562496185
153361000000,-0.0811306461692,11.8153457642,12.0749998093
153361000000,-0.130230113864,11.853181839,12.09375
153404000000,-0.167917430401,11.8909292221,12.1125001907
153404000000,1.0,11.8888034821,12.1312503815
153404000000,1.0,11.8833446503,12.1499996185
153404000000,1.0,11.8778018951,12.1687498093
153404000000,1.0,11.8722496033,12.1875
153424000000,1.0,11.8898363113,12.2062501907
153425000000,0.0326993875206,11.9270448685,12.2250003815
153431000000,1.0,11.9447021484,12.2437496185
153441000000,0.116382405162,11.9795570374,12.2624998093
153484000000,1.0,11.985877037,12.28125
153484000000,1.0,11.9897289276,12.3000001907
153484000000,1.0,11.993519783,12.3187503815
153484000000,1.0,11.9973611832,12.3374996185
153528000000,0.749905407429,12.0217752457,12.3562498093
153528000000,0.0690963417292,12.0591516495,12.375
153528000000,0.0157510042191,12.0967655182,12.3937501907
153528000000,-0.0318138562143,12.1344938278,12.4125003815
153572000000,0.393311619759,12.1631689072,12.4312496185
153572000000,1.0,12.1611299515,12.4499998093
153572000000,1.0,12.1592769623,12.46875
153572000000,1.0,12.1573982239,12.4875001907
153572000000,1.0,12.1555919647,12.5062503815
153607000000,0.530542016029,12.1848144531,12.5249996185
153607000000,0.086126178503,12.2222089767,12.5437498093
153607000000,0.0303400028497,12.2598876953,12.5625
153611000000,0.568197250366,12.2863311768,12.5812501907
153621000000,0.893585145473,12.3061447144,12.6000003815
153662000000,0.2321472615,12.3387432098,12.6187496185
153662000000,0.200104251504,12.3713722229,12.6374998093
153662000000,0.106316551566,12.4052267075,12.65625
